     3.02           OBSERVATION DATA    M: Mixed            RINEX VERSION / TYPE
GNSS-SDRLIB v1.1                        20210507 070111 UTC PGM / RUN BY / DATE 
                                                            MARKER NAME         
                                                            MARKER NUMBER       
                                                            MARKER TYPE         
                                                            OBSERVER / AGENCY   
GNSS-SDRLIB         GNSS-SDRLIB         1.1                 REC # / TYPE / VERS 
                                                            ANT # / TYPE        
        0.0000        0.0000        0.0000                  APPROX POSITION XYZ 
        0.0000        0.0000        0.0000                  ANTENNA: DELTA H/E/N
G    4 C1C L1C D1C S1C                                      SYS / # / OBS TYPES 
R    4 C1C L1C D1C S1C                                      SYS / # / OBS TYPES 
E    4 C1C L1C D1C S1C                                      SYS / # / OBS TYPES 
J    4 C1C L1C D1C S1C                                      SYS / # / OBS TYPES 
S    4 C1C L1C D1C S1C                                      SYS / # / OBS TYPES 
C    4 C1C L1C D1C S1C                                      SYS / # / OBS TYPES 
  1970     1     1     0     0    0.0000000     GPS         TIME OF FIRST OBS   
  1970     1     1     0     0    0.0000000     GPS         TIME OF LAST OBS    
G                                                           SYS / PHASE SHIFT   
R                                                           SYS / PHASE SHIFT   
E                                                           SYS / PHASE SHIFT   
J                                                           SYS / PHASE SHIFT   
S                                                           SYS / PHASE SHIFT   
C                                                           SYS / PHASE SHIFT   
  0                                                         GLONASS SLOT / FRQ #
 C1C    0.000 C1P    0.000 C2C    0.000 C2P    0.000        GLONASS COD/PHS/BIS 
                                                            END OF HEADER       
> 2014  7  3 10 11 36.0688020  0  1                     
G 4  20623769.241      -35164.304       -2250.464          40.000  
> 2014  7  3 10 11 36.1688020  0  2                     
G 6  22582315.340      -37985.310       -2451.491          36.500  
G 4  20623726.740      -35389.249       -2249.661          40.000  
> 2014  7  3 10 11 36.2688020  0  2                     
G 6  22582270.312      -38230.343       -2451.070          36.250  
G 4  20623683.183      -35614.168       -2249.156          40.000  
> 2014  7  3 10 11 36.3688020  0  2                     
G 6  22582223.940      -38475.468       -2451.221          36.500  
G 4  20623640.245      -35839.133       -2249.851          39.750  
> 2014  7  3 10 11 36.4688020  0  2                     
G 6  22582177.602      -38720.515       -2451.412          36.500  
G 4  20623596.543      -36064.040       -2249.741          40.000  
> 2014  7  3 10 11 36.5688020  0  2                     
G 6  22582131.580      -38965.596       -2450.567          36.500  
G 4  20623553.093      -36289.002       -2249.713          39.750  
> 2014  7  3 10 11 36.6688020  0  2                     
G 6  22582084.057      -39210.656       -2449.825          36.250  
G 4  20623510.949      -36513.936       -2248.522          39.750  
> 2014  7  3 10 11 36.7688020  0  2                     
G 6  22582037.585      -39455.746       -2451.560          36.500  
G 4  20623468.875      -36738.869       -2249.103          39.500  
> 2014  7  3 10 11 36.8688020  0  2                     
G 6  22581991.087      -39700.801       -2451.329          36.000  
G 4  20623423.947      -36963.783       -2249.118          39.750  
> 2014  7  3 10 11 36.9688020  0  2                     
G 6  22581944.331      -39945.899       -2451.707          36.250  
G 4  20623382.106      -37188.733       -2249.847          40.000  
> 2014  7  3 10 11 37.0688020  0  2                     
G 6  22581896.630      -40191.024       -2450.848          36.000  
G 4  20623339.771      -37413.727       -2250.147          40.000  
> 2014  7  3 10 11 37.1688020  0  2                     
G 6  22581851.115      -40436.084       -2450.785          35.750  
G 4  20623296.981      -37638.637       -2249.842          39.750  
> 2014  7  3 10 11 37.2688020  0  2                     
G 6  22581806.102      -40681.173       -2451.082          36.250  
G 4  20623255.305      -37863.581       -2248.098          40.000  
> 2014  7  3 10 11 37.3688020  0  2                     
G 6  22581760.503      -40926.260       -2450.384          36.000  
G 4  20623213.792      -38088.533       -2248.775          39.750  
> 2014  7  3 10 11 37.4688020  0  2                     
G 6  22581715.072      -41171.329       -2450.725          35.750  
G 4  20623170.892      -38313.465       -2249.996          39.500  
> 2014  7  3 10 11 37.5688020  0  2                     
G 6  22581666.990      -41416.412       -2450.520          36.000  
G 4  20623127.270      -38538.401       -2249.267          39.250  
> 2014  7  3 10 11 37.6688020  0  2                     
G 6  22581618.900      -41661.488       -2451.333          35.750  
G 4  20623083.643      -38763.329       -2249.781          39.750  
> 2014  7  3 10 11 37.7688020  0  2                     
G 6  22581571.896      -41906.505       -2449.875          35.500  
G 4  20623039.273      -38988.189       -2247.701          39.750  
> 2014  7  3 10 11 37.8688020  0  2                     
G 6  22581524.328      -42151.576       -2451.168          35.750  
G 4  20622996.886      -39213.079       -2248.679          39.500  
> 2014  7  3 10 11 37.9688020  0  2                     
G 6  22581475.726      -42396.588       -2450.309          35.500  
G 4  20622954.809      -39437.979       -2248.241          39.500  
> 2014  7  3 10 11 38.0688020  0  2                     
G 6  22581428.901      -42641.706       -2450.281          35.750  
G 4  20622912.040      -39662.931       -2250.036          39.750  
> 2014  7  3 10 11 38.1688020  0  2                     
G 6  22581383.344      -42886.775       -2451.126          35.500  
G 4  20622869.172      -39887.853       -2249.752          39.250  
> 2014  7  3 10 11 38.2688020  0  2                     
G 6  22581337.279      -43131.769       -2449.500          35.750  
G 4  20622826.819      -40112.708       -2248.328          39.500  
> 2014  7  3 10 11 38.3688020  0  2                     
G 6  22581289.371      -43376.790       -2450.647          35.750  
G 4  20622783.483      -40337.591       -2249.825          39.500  
> 2014  7  3 10 11 38.4688020  0  2                     
G 6  22581243.583      -43621.789       -2449.464          35.500  
G 4  20622740.485      -40562.409       -2247.714          39.750  
> 2014  7  3 10 11 38.5688020  0  2                     
G 6  22581196.575      -43866.826       -2450.027          35.250  
G 4  20622697.388      -40787.304       -2248.730          39.500  
> 2014  7  3 10 11 38.6688020  0  2                     
G 6  22581149.706      -44111.868       -2449.782          35.500  
G 4  20622654.241      -41012.164       -2247.771          39.750  
> 2014  7  3 10 11 38.7688020  0  2                     
G 6  22581101.301      -44356.886       -2450.857          35.500  
G 4  20622612.727      -41237.047       -2249.548          39.250  
> 2014  7  3 10 11 38.8688020  0  2                     
G 6  22581056.047      -44601.912       -2450.000          35.500  
G 4  20622571.110      -41461.902       -2248.185          39.500  
> 2014  7  3 10 11 38.9688020  0  2                     
G 6  22581008.442      -44846.927       -2451.140          35.000  
G 4  20622527.041      -41686.762       -2248.490          39.500  
> 2014  7  3 10 11 39.0688020  0  2                     
G 6  22580961.456      -45091.954       -2450.255          35.000  
G 4  20622484.231      -41911.612       -2247.760          39.750  
> 2014  7  3 10 11 39.1688020  0  2                     
G 6  22580912.787      -45336.945       -2448.695          35.000  
G 4  20622442.298      -42136.450       -2248.553          39.500  
> 2014  7  3 10 11 39.2688020  0  2                     
G 6  22580865.475      -45582.012       -2450.587          34.750  
G 4  20622398.034      -42361.330       -2248.149          39.500  
> 2014  7  3 10 11 39.3688020  0  2                     
G 6  22580817.465      -45827.042       -2452.073          34.500  
G 4  20622356.424      -42586.197       -2248.129          39.750  
> 2014  7  3 10 11 39.4688020  0  2                     
G 6  22580770.680      -46072.049       -2450.587          35.000  
G 4  20622312.984      -42811.055       -2248.082          39.250  
> 2014  7  3 10 11 39.5688020  0  2                     
G 6  22580724.175      -46317.051       -2450.110          35.000  
G 4  20622271.805      -43035.905       -2248.530          39.500  
> 2014  7  3 10 11 39.6688020  0  2                     
G 6  22580677.266      -46562.083       -2449.684          34.750  
G 4  20622229.009      -43260.766       -2248.119          39.500  
> 2014  7  3 10 11 39.7688020  0  2                     
G 6  22580632.527      -46807.133       -2450.741          34.750  
G 4  20622185.886      -43485.636       -2249.448          39.750  
> 2014  7  3 10 11 39.8688020  0  2                     
G 6  22580584.319      -47052.232       -2451.934          34.750  
G 4  20622141.573      -43710.567       -2249.683          39.750  
> 2014  7  3 10 11 39.9688020  0  2                     
G 6  22580537.807      -47297.312       -2450.529          34.750  
G 4  20622099.053      -43935.475       -2248.935          39.750  
> 2014  7  3 10 11 40.0688020  0  2                     
G 6  22580491.400      -47542.344       -2450.416          34.500  
G 4  20622057.756      -44160.325       -2248.177          39.750  
> 2014  7  3 10 11 40.1688020  0  2                     
G 6  22580442.703      -47787.394       -2451.744          34.500  
G 4  20622013.570      -44385.216       -2248.859          39.500  
> 2014  7  3 10 11 40.2688020  0  2                     
G 6  22580397.421      -48032.440       -2449.703          34.250  
G 4  20621970.779      -44610.101       -2248.937          39.500  
> 2014  7  3 10 11 40.3688020  0  2                     
G 6  22580349.575      -48277.477       -2450.769          34.250  
G 4  20621929.867      -44834.948       -2248.013          39.500  
> 2014  7  3 10 11 40.4688020  0  2                     
G 6  22580301.849      -48522.496       -2452.089          34.500  
G 4  20621887.063      -45059.787       -2247.870          39.500  
> 2014  7  3 10 11 40.5688020  0  2                     
G 6  22580256.238      -48767.530       -2451.386          34.500  
G 4  20621841.973      -45284.640       -2248.946          39.750  
> 2014  7  3 10 11 40.6688020  0  2                     
G 6  22580211.167      -49012.589       -2452.298          34.000  
G 4  20621800.201      -45509.535       -2248.740          39.750  
> 2014  7  3 10 11 40.7688020  0  2                     
G 6  22580164.879      -49257.637       -2450.794          34.000  
G 4  20621759.158      -45734.401       -2248.176          39.750  
> 2014  7  3 10 11 40.8688020  0  2                     
G 6  22580119.585      -49502.698       -2450.872          34.250  
G 4  20621715.171      -45959.284       -2248.903          40.000  
> 2014  7  3 10 11 40.9688020  0  2                     
G 6  22580072.304      -49747.773       -2451.399          34.000  
G 4  20621672.534      -46184.170       -2247.876          39.500  
> 2014  7  3 10 11 41.0688020  0  2                     
G 6  22580025.964      -49992.794       -2449.435          34.250  
G 4  20621628.817      -46409.031       -2248.520          39.750  
> 2014  7  3 10 11 41.1688020  0  2                     
G 6  22579979.985      -50237.863       -2451.018          34.000  
G 4  20621584.193      -46633.898       -2249.709          39.750  
> 2014  7  3 10 11 41.2688020  0  2                     
G 6  22579933.869      -50482.980       -2451.968          34.000  
G 4  20621540.877      -46858.828       -2249.121          39.500  
> 2014  7  3 10 11 41.3688020  0  2                     
G 6  22579885.876      -50728.020       -2450.453          34.000  
G 4  20621498.066      -47083.691       -2247.386          39.500  
> 2014  7  3 10 11 41.4688020  0  2                     
G 6  22579839.257      -50973.065       -2449.770          34.000  
G 4  20621458.653      -47308.566       -2249.090          39.500  
> 2014  7  3 10 11 41.5688020  0  2                     
G 6  22579794.044      -51218.137       -2450.656          34.500  
G 4  20621414.381      -47533.433       -2247.844          39.500  
> 2014  7  3 10 11 41.6688020  0  2                     
G 6  22579746.042      -51463.133       -2449.568          34.000  
G 4  20621373.919      -47758.258       -2248.518          39.750  
> 2014  7  3 10 11 41.7688020  0  2                     
G 6  22579698.180      -51708.144       -2450.792          34.250  
G 4  20621329.971      -47983.066       -2248.503          39.750  
> 2014  7  3 10 11 41.8688020  0  2                     
G 6  22579651.597      -51953.150       -2448.436          34.250  
G 4  20621286.194      -48207.884       -2248.215          40.000  
> 2014  7  3 10 11 41.9688020  0  2                     
G 6  22579605.067      -52198.128       -2450.115          34.250  
G 4  20621242.476      -48432.682       -2248.315          39.500  
> 2014  7  3 10 11 42.0688020  0  2                     
G 6  22579558.670      -52443.101       -2449.253          34.500  
G 4  20621199.464      -48657.469       -2248.288          39.500  
> 2014  7  3 10 11 42.1688020  0  2                     
G 6  22579514.917      -52688.119       -2449.657          34.250  
G 4  20621157.675      -48882.278       -2248.211          39.500  
> 2014  7  3 10 11 42.2688020  0  2                     
G 6  22579465.978      -52933.104       -2449.032          34.250  
G 4  20621113.270      -49107.073       -2247.450          39.750  
> 2014  7  3 10 11 42.3688020  0  2                     
G 6  22579418.170      -53178.086       -2450.126          34.000  
G 4  20621070.814      -49331.846       -2247.466          39.750  
> 2014  7  3 10 11 42.4688020  0  2                     
G 6  22579373.420      -53423.089       -2449.049          34.250  
G 4  20621029.282      -49556.646       -2248.114          39.750  
> 2014  7  3 10 11 42.5688020  0  2                     
G 6  22579327.909      -53668.043       -2449.970          33.750  
G 4  20620988.813      -49781.408       -2247.472          39.750  
> 2014  7  3 10 11 42.6688020  0  2                     
G 6  22579281.677      -53913.030       -2452.979          33.750  
G 4  20620946.873      -50006.203       -2249.056          40.000  
> 2014  7  3 10 11 42.7688020  0  2                     
G 6  22579236.010      -54158.019       -2450.985          34.000  
G 4  20620905.275      -50230.997       -2247.805          39.500  
> 2014  7  3 10 11 42.8688020  0  2                     
G 6  22579187.831      -54403.021       -2449.777          34.250  
G 4  20620862.522      -50455.779       -2248.251          39.750  
> 2014  7  3 10 11 42.9688020  0  2                     
G 6  22579140.368      -54647.949       -2450.284          34.000  
G 4  20620819.245      -50680.520       -2247.515          39.750  
> 2014  7  3 10 11 43.0688020  0  2                     
G 6  22579095.615      -54892.956       -2449.700          34.250  
G 4  20620775.687      -50905.313       -2246.827          40.000  
> 2014  7  3 10 11 43.1688020  0  2                     
G 6  22579049.205      -55137.894       -2449.625          34.000  
G 4  20620733.642      -51130.054       -2247.070          40.250  
> 2014  7  3 10 11 43.2688020  0  2                     
G 6  22579001.108      -55382.880       -2450.280          34.500  
G 4  20620690.502      -51354.826       -2247.381          40.000  
> 2014  7  3 10 11 43.3688020  0  2                     
G 6  22578955.035      -55627.786       -2448.443          33.750  
G 4  20620648.129      -51579.548       -2247.173          40.000  
> 2014  7  3 10 11 43.4688020  0  2                     
G 6  22578909.250      -55872.756       -2448.218          34.000  
G 4  20620605.218      -51804.314       -2247.701          39.750  
> 2014  7  3 10 11 43.5688020  0  2                     
G 6  22578861.795      -56117.733       -2448.937          34.000  
G 4  20620560.332      -52029.055       -2246.903          40.000  
> 2014  7  3 10 11 43.6688020  0  2                     
G 6  22578810.926      -56362.654       -2448.845          34.000  
G 4  20620518.352      -52253.789       -2247.925          40.250  
> 2014  7  3 10 11 43.7688020  0  2                     
G 6  22578765.144      -56607.663       -2451.504          33.750  
G 4  20620475.948      -52478.574       -2247.426          40.000  
> 2014  7  3 10 11 43.8688020  0  2                     
G 6  22578718.332      -56852.652       -2450.569          33.500  
G 4  20620434.310      -52703.380       -2247.936          39.750  
> 2014  7  3 10 11 43.9688020  0  2                     
G 6  22578672.339      -57097.613       -2448.947          34.000  
G 4  20620392.993      -52928.114       -2247.182          39.750  
> 2014  7  3 10 11 44.0688020  0  2                     
G 6  22578628.257      -57342.570       -2451.177          33.500  
G 4  20620350.230      -53152.838       -2247.177          40.000  
> 2014  7  3 10 11 44.1688020  0  2                     
G 6  22578578.936      -57587.527       -2450.413          33.750  
G 4  20620304.044      -53377.582       -2248.152          39.750  
> 2014  7  3 10 11 44.2688020  0  2                     
G 6  22578532.736      -57832.469       -2448.451          33.750  
G 4  20620260.040      -53602.311       -2247.544          39.750  
> 2014  7  3 10 11 44.3688020  0  2                     
G 6  22578482.972      -58077.404       -2448.858          33.500  
G 4  20620219.661      -53827.051       -2245.615          39.750  
> 2014  7  3 10 11 44.4688020  0  2                     
G 6  22578439.360      -58322.373       -2448.540          34.000  
G 4  20620176.906      -54051.784       -2246.615          39.500  
> 2014  7  3 10 11 44.5688020  0  2                     
G 6  22578389.154      -58567.345       -2451.371          33.500  
G 4  20620134.459      -54276.550       -2248.075          40.000  
> 2014  7  3 10 11 44.6688020  0  2                     
G 6  22578343.232      -58812.319       -2449.968          34.000  
G 4  20620091.398      -54501.302       -2247.755          40.000  
> 2014  7  3 10 11 44.7688020  0  2                     
G 6  22578294.749      -59057.292       -2449.783          34.000  
G 4  20620047.426      -54726.077       -2247.045          40.000  
> 2014  7  3 10 11 44.8688020  0  2                     
G 6  22578248.505      -59302.258       -2450.836          33.500  
G 4  20620003.728      -54950.805       -2246.581          39.750  
> 2014  7  3 10 11 44.9688020  0  2                     
G 6  22578204.144      -59547.207       -2449.170          33.250  
G 4  20619959.726      -55175.549       -2247.734          40.000  
> 2014  7  3 10 11 45.0688020  0  2                     
G 6  22578157.676      -59792.155       -2449.139          33.500  
G 4  20619916.903      -55400.271       -2246.329          40.000  
> 2014  7  3 10 11 45.1688020  0  2                     
G 6  22578112.940      -60037.123       -2452.030          34.000  
G 4  20619876.585      -55624.996       -2248.400          39.750  
> 2014  7  3 10 11 45.2688020  0  2                     
G 6  22578065.216      -60282.055       -2450.055          33.500  
G 4  20619833.123      -55849.718       -2248.082          39.750  
> 2014  7  3 10 11 45.3688020  0  2                     
G 6  22578015.403      -60527.031       -2450.361          33.750  
G 4  20619790.780      -56074.462       -2247.488          39.750  
> 2014  7  3 10 11 45.4688020  0  2                     
G 6  22577969.241      -60771.979       -2451.299          33.500  
G 4  20619748.236      -56299.188       -2248.318          39.750  
> 2014  7  3 10 11 45.5688020  0  2                     
G 6  22577923.006      -61016.957       -2449.596          33.750  
G 4  20619705.909      -56523.921       -2246.527          39.750  
> 2014  7  3 10 11 45.6688020  0  2                     
G 6  22577878.232      -61261.900       -2449.703          33.750  
G 4  20619661.629      -56748.660       -2247.757          39.500  
> 2014  7  3 10 11 45.7688020  0  2                     
G 6  22577832.969      -61506.841       -2447.896          33.500  
G 4  20619617.670      -56973.366       -2247.596          39.500  
> 2014  7  3 10 11 45.8688020  0  2                     
G 6  22577787.366      -61751.774       -2449.398          33.500  
G 4  20619576.368      -57198.062       -2246.799          39.500  
> 2014  7  3 10 11 45.9688020  0  2                     
G 6  22577737.340      -61996.702       -2448.539          33.750  
G 4  20619534.678      -57422.775       -2247.216          39.750  
> 2014  7  3 10 11 46.0688020  0  2                     
G 6  22577692.896      -62241.655       -2450.078          33.250  
G 4  20619491.681      -57647.470       -2247.232          39.750  
> 2014  7  3 10 11 46.1688020  0  2                     
G 6  22577647.608      -62486.539       -2448.136          32.750  
G 4  20619449.418      -57872.145       -2246.992          40.000  
> 2014  7  3 10 11 46.2688020  0  2                     
G 6  22577598.709      -62731.486       -2449.860          33.250  
G 4  20619406.281      -58096.841       -2247.298          39.750  
> 2014  7  3 10 11 46.3688020  0  2                     
G 6  22577552.210      -62976.425       -2449.669          32.750  
G 4  20619364.621      -58321.539       -2247.405          39.750  
> 2014  7  3 10 11 46.4688020  0  2                     
G 6  22577506.778      -63221.343       -2449.717          33.250  
G 4  20619322.160      -58546.214       -2246.714          39.500  
> 2014  7  3 10 11 46.5688020  0  2                     
G 6  22577461.259      -63466.211       -2449.160          33.250  
G 4  20619279.478      -58770.861       -2246.288          39.500  
> 2014  7  3 10 11 46.6688020  0  2                     
G 6  22577412.984      -63711.120       -2449.619          33.250  
G 4  20619238.913      -58995.530       -2247.459          39.500  
> 2014  7  3 10 11 46.7688020  0  2                     
G 6  22577366.164      -63955.977       -2448.917          33.500  
G 4  20619197.284      -59220.147       -2245.700          39.500  
> 2014  7  3 10 11 46.8688020  0  2                     
G 6  22577320.768      -64200.859       -2450.813          32.750  
G 4  20619152.675      -59444.767       -2246.831          39.500  
> 2014  7  3 10 11 46.9688020  0  2                     
G 6  22577274.137      -64445.693       -2448.919          33.000  
G 4  20619111.539      -59669.388       -2246.845          39.500  
> 2014  7  3 10 11 47.0688020  0  2                     
G 6  22577227.588      -64690.545       -2447.721          32.750  
G 4  20619069.599      -59893.989       -2244.402          39.500  
> 2014  7  3 10 11 47.1688020  0  2                     
G 6  22577183.589      -64935.454       -2447.549          33.000  
G 4  20619026.143      -60118.632       -2245.150          39.250  
> 2014  7  3 10 11 47.2688020  0  2                     
G 6  22577137.404      -65180.306       -2448.541          33.250  
G 4  20618982.271      -60343.279       -2245.241          39.250  
> 2014  7  3 10 11 47.3688020  0  2                     
G 6  22577090.746      -65425.168       -2447.332          32.500  
G 4  20618937.527      -60567.883       -2246.143          39.750  
> 2014  7  3 10 11 47.4688020  0  2                     
G 6  22577046.102      -65670.061       -2448.042          33.000  
G 4  20618894.028      -60792.516       -2246.456          39.500  
> 2014  7  3 10 11 47.5688020  0  2                     
G 6  22576997.357      -65914.912       -2446.614          33.000  
G 4  20618852.965      -61017.142       -2245.232          39.750  
> 2014  7  3 10 11 47.6688020  0  2                     
G 6  22576952.871      -66159.803       -2448.135          33.000  
G 4  20618809.688      -61241.763       -2245.861          40.000  
> 2014  7  3 10 11 47.7688020  0  2                     
G 6  22576903.527      -66404.646       -2448.979          32.750  
G 4  20618766.136      -61466.383       -2246.444          39.750  
> 2014  7  3 10 11 47.8688020  0  2                     
G 6  22576859.420      -66649.518       -2448.395          33.000  
G 4  20618724.023      -61690.988       -2246.075          39.500  
> 2014  7  3 10 11 47.9688020  0  2                     
G 6  22576814.334      -66894.352       -2447.353          33.000  
G 4  20618682.216      -61915.560       -2245.538          39.750  
> 2014  7  3 10 11 48.0688020  0  2                     
G 6  22576764.989      -67139.185       -2448.356          32.750  
G 4  20618638.503      -62140.145       -2244.782          39.750  
> 2014  7  3 10 11 48.1688020  0  2                     
G 6  22576717.850      -67384.049       -2450.524          32.250  
G 4  20618594.447      -62364.742       -2246.268          39.750  
> 2014  7  3 10 11 48.2688020  0  2                     
G 6  22576672.317      -67628.846       -2447.788          32.750  
G 4  20618552.024      -62589.321       -2245.499          39.750  
> 2014  7  3 10 11 48.3688020  0  2                     
G 6  22576628.083      -67873.705       -2447.802          32.250  
G 4  20618509.908      -62813.896       -2245.490          39.500  
> 2014  7  3 10 11 48.4688020  0  2                     
G 6  22576579.818      -68118.529       -2447.600          32.750  
G 4  20618466.507      -63038.486       -2246.171          40.000  
> 2014  7  3 10 11 48.5688020  0  2                     
G 6  22576536.457      -68363.404       -2448.932          32.750  
G 4  20618424.677      -63263.082       -2245.648          39.750  
> 2014  7  3 10 11 48.6688020  0  2                     
G 6  22576487.776      -68608.231       -2448.185          32.250  
G 4  20618381.567      -63487.662       -2246.205          40.000  
> 2014  7  3 10 11 48.7688020  0  2                     
G 6  22576441.663      -68853.076       -2448.679          32.500  
G 4  20618340.018      -63712.248       -2245.592          40.000  
> 2014  7  3 10 11 48.8688020  0  2                     
G 6  22576393.867      -69097.922       -2449.126          32.500  
G 4  20618296.995      -63936.822       -2246.225          40.000  
> 2014  7  3 10 11 48.9688020  0  2                     
G 6  22576344.296      -69342.746       -2447.980          32.250  
G 4  20618253.171      -64161.387       -2245.075          40.000  
> 2014  7  3 10 11 49.0688020  0  2                     
G 6  22576297.355      -69587.588       -2449.355          31.750  
G 4  20618210.829      -64385.981       -2246.360          40.250  
> 2014  7  3 10 11 49.1688020  0  2                     
G 6  22576249.956      -69832.487       -2448.717          31.750  
G 4  20618166.986      -64610.586       -2246.609          39.500  
> 2014  7  3 10 11 49.2688020  0  2                     
G 6  22576202.868      -70077.320       -2447.462          32.000  
G 4  20618124.963      -64835.175       -2245.681          39.750  
> 2014  7  3 10 11 49.3688020  0  2                     
G 6  22576157.450      -70322.181       -2447.475          32.000  
G 4  20618082.970      -65059.773       -2245.680          40.000  
> 2014  7  3 10 11 49.4688020  0  2                     
G 6  22576104.713      -70566.972       -2449.072          31.500  
G 4  20618042.126      -65284.294       -2245.119          39.750  
> 2014  7  3 10 11 49.5688020  0  2                     
G 6  22576059.016      -70811.804       -2448.935          31.500  
G 4  20617996.700      -65508.846       -2246.293          39.750  
> 2014  7  3 10 11 49.6688020  0  2                     
G 6  22576015.533      -71056.577       -2448.760          31.750  
G 4  20617954.223      -65733.358       -2245.461          39.500  
> 2014  7  3 10 11 49.7688020  0  2                     
G 6  22575969.329      -71301.378       -2445.851          31.250  
G 4  20617911.421      -65957.859       -2244.491          39.500  
> 2014  7  3 10 11 49.8688020  0  2                     
G 6  22575919.793      -71546.178       -2447.876          30.500  
G 4  20617868.194      -66182.386       -2245.263          39.500  
> 2014  7  3 10 11 49.9688020  0  2                     
G 6  22575872.823      -71790.964       -2450.272          31.000  
G 4  20617826.723      -66406.903       -2244.080          40.000  
> 2014  7  3 10 11 50.0688020  0  2                     
G 6  22575818.794      -72035.821       -2449.086          30.500  
G 4  20617782.667      -66631.484       -2246.372          39.750  
> 2014  7  3 10 11 50.1688020  0  2                     
G 6  22575772.909      -72280.621       -2449.278          30.250  
G 4  20617740.242      -66856.030       -2245.412          39.750  
> 2014  7  3 10 11 50.2688020  0  2                     
G 6  22575726.827      -72525.443       -2448.225          31.000  
G 4  20617697.858      -67080.587       -2245.617          39.500  
> 2014  7  3 10 11 50.3688020  0  2                     
G 6  22575680.366      -72770.282       -2448.173          30.500  
G 4  20617654.697      -67305.109       -2245.061          39.750  
> 2014  7  3 10 11 50.4688020  0  2                     
G 6  22575634.678      -73015.115       -2449.680          30.750  
G 4  20617612.312      -67529.665       -2245.137          39.750  
> 2014  7  3 10 11 50.5688020  0  2                     
G 6  22575586.613      -73259.880       -2447.346          30.250  
G 4  20617568.708      -67754.149       -2245.036          39.750  
> 2014  7  3 10 11 50.6688020  0  2                     
G 6  22575538.450      -73504.680       -2448.525          30.250  
G 4  20617525.840      -67978.672       -2245.279          39.500  
> 2014  7  3 10 11 50.7688020  0  2                     
G 6  22575497.384      -73749.501       -2449.483          30.250  
G 4  20617483.267      -68203.211       -2246.372          39.500  
> 2014  7  3 10 11 50.8688020  0  2                     
G 6  22575451.628      -73994.263       -2448.134          30.250  
G 4  20617440.065      -68427.711       -2244.406          39.500  
> 2014  7  3 10 11 50.9688020  0  2                     
G 6  22575404.718      -74239.080       -2447.872          30.250  
G 4  20617395.806      -68652.241       -2245.540          39.500  
> 2014  7  3 10 11 51.0688020  0  2                     
G 6  22575355.318      -74483.924       -2449.396          30.250  
G 4  20617355.701      -68876.780       -2245.541          39.250  
> 2014  7  3 10 11 51.1688020  0  2                     
G 6  22575312.310      -74728.686       -2447.330          30.250  
G 4  20617311.831      -69101.267       -2245.226          39.500  
> 2014  7  3 10 11 51.2688020  0  2                     
G 6  22575263.032      -74973.430       -2447.586          30.250  
G 4  20617270.898      -69325.716       -2244.749          39.500  
> 2014  7  3 10 11 51.3688020  0  2                     
G 6  22575216.891      -75218.195       -2449.888          30.000  
G 4  20617226.854      -69550.205       -2245.284          39.500  
> 2014  7  3 10 11 51.4688020  0  2                     
G 6  22575166.543      -75462.968       -2446.299          29.750  
G 4  20617184.490      -69774.705       -2245.127          39.250  
> 2014  7  3 10 11 51.5688020  0  2                     
G 6  22575120.198      -75707.750       -2446.293          29.500  
G 4  20617142.161      -69999.202       -2244.888          39.750  
> 2014  7  3 10 11 51.6688020  0  2                     
G 6  22575074.510      -75952.564       -2448.935          29.500  
G 4  20617098.315      -70223.715       -2246.147          39.250  
> 2014  7  3 10 11 51.7688020  0  2                     
G 6  22575032.289      -76197.346       -2446.335          29.750  
G 4  20617056.817      -70448.188       -2244.003          39.500  
> 2014  7  3 10 11 51.8688020  0  2                     
G 6  22574986.085      -76442.067       -2448.835          30.250  
G 4  20617013.644      -70672.635       -2244.522          39.500  
> 2014  7  3 10 11 51.9688020  0  2                     
G 6  22574940.115      -76686.800       -2447.451          30.000  
G 4  20616970.914      -70897.078       -2243.738          39.750  
> 2014  7  3 10 11 52.0688020  0  2                     
G 6  22574892.499      -76931.553       -2447.326          31.000  
G 4  20616928.889      -71121.543       -2243.864          39.750  
> 2014  7  3 10 11 52.1688020  0  2                     
G 6  22574849.671      -77176.339       -2448.017          30.750  
G 4  20616884.173      -71346.010       -2244.545          39.750  
> 2014  7  3 10 11 52.2688020  0  2                     
G 6  22574806.237      -77421.059       -2447.436          30.250  
G 4  20616840.228      -71570.474       -2244.886          39.750  
> 2014  7  3 10 11 52.3688020  0  2                     
G 6  22574758.959      -77665.852       -2448.223          31.000  
G 4  20616797.636      -71794.942       -2244.595          39.500  
> 2014  7  3 10 11 52.4688020  0  2                     
G 6  22574709.365      -77910.632       -2446.637          30.500  
G 4  20616756.910      -72019.412       -2243.844          39.500  
> 2014  7  3 10 11 52.5688020  0  2                     
G 6  22574659.289      -78155.413       -2447.964          30.750  
G 4  20616712.573      -72243.910       -2245.577          39.500  
> 2014  7  3 10 11 52.6688020  0  2                     
G 6  22574615.353      -78400.156       -2445.253          30.500  
G 4  20616670.603      -72468.357       -2243.742          39.750  
> 2014  7  3 10 11 52.7688020  0  2                     
G 6  22574570.758      -78644.918       -2448.108          30.500  
G 4  20616626.398      -72692.805       -2243.289          39.250  
> 2014  7  3 10 11 52.8688020  0  2                     
G 6  22574524.058      -78889.663       -2448.022          31.000  
G 4  20616582.509      -72917.251       -2245.064          39.250  
> 2014  7  3 10 11 52.9688020  0  2                     
G 6  22574478.443      -79134.430       -2447.723          31.000  
G 4  20616539.564      -73141.701       -2244.609          39.000  
> 2014  7  3 10 11 53.0688020  0  2                     
G 6  22574430.127      -79379.208       -2448.097          31.000  
G 4  20616497.141      -73366.179       -2245.663          39.000  
> 2014  7  3 10 11 53.1688020  0  2                     
G 6  22574385.271      -79624.014       -2449.197          31.500  
G 4  20616453.794      -73590.672       -2244.318          39.250  
> 2014  7  3 10 11 53.2688020  0  2                     
G 6  22574336.176      -79868.764       -2446.914          30.500  
G 4  20616409.616      -73815.140       -2244.972          39.000  
> 2014  7  3 10 11 53.3688020  0  2                     
G 6  22574289.062      -80113.534       -2446.588          31.250  
G 4  20616367.992      -74039.590       -2245.309          39.000  
> 2014  7  3 10 11 53.4688020  0  2                     
G 6  22574243.744      -80358.320       -2448.562          31.000  
G 4  20616325.668      -74264.058       -2244.697          39.250  
> 2014  7  3 10 11 53.5688020  0  2                     
G 6  22574198.375      -80603.081       -2447.404          31.000  
G 4  20616282.073      -74488.513       -2244.929          39.250  
> 2014  7  3 10 11 53.6688020  0  2                     
G 6  22574150.041      -80847.824       -2447.096          30.750  
G 4  20616241.985      -74712.959       -2245.234          39.250  
> 2014  7  3 10 11 53.7688020  0  2                     
G 6  22574107.294      -81092.624       -2447.545          30.750  
G 4  20616198.949      -74937.423       -2244.574          39.000  
> 2014  7  3 10 11 53.8688020  0  2                     
G 6  22574062.138      -81337.397       -2447.592          32.000  
G 4  20616155.080      -75161.906       -2245.702          39.500  
> 2014  7  3 10 11 53.9688020  0  2                     
G 6  22574016.876      -81582.150       -2448.648          31.500  
G 4  20616113.706      -75386.340       -2243.678          39.500  
> 2014  7  3 10 11 54.0688020  0  2                     
G 6  22573969.022      -81826.914       -2446.432          31.750  
G 4  20616073.704      -75610.793       -2245.621          39.250  
> 2014  7  3 10 11 54.1688020  0  2                     
G 6  22573923.839      -82071.680       -2446.203          31.500  
G 4  20616029.446      -75835.236       -2244.139          39.750  
> 2014  7  3 10 11 54.2688020  0  2                     
G 6  22573875.547      -82316.432       -2447.745          31.750  
G 4  20615986.891      -76059.653       -2244.173          39.250  
> 2014  7  3 10 11 54.3688020  0  2                     
G 6  22573827.904      -82561.169       -2448.024          32.500  
G 4  20615943.730      -76284.080       -2244.931          39.750  
> 2014  7  3 10 11 54.4688020  0  2                     
G 6  22573779.792      -82805.908       -2445.672          31.500  
G 4  20615902.145      -76508.512       -2243.629          39.500  
> 2014  7  3 10 11 54.5688020  0  2                     
G 6  22573730.203      -83050.619       -2445.236          31.750  
G 4  20615860.097      -76732.919       -2242.701          39.500  
> 2014  7  3 10 11 54.6688020  0  2                     
G 6  22573683.048      -83295.312       -2446.342          31.500  
G 4  20615816.954      -76957.254       -2243.120          39.500  
> 2014  7  3 10 11 54.7688020  0  2                     
G 6  22573639.841      -83539.993       -2446.140          32.000  
G 4  20615775.037      -77181.628       -2243.774          39.500  
> 2014  7  3 10 11 54.8688020  0  2                     
G 6  22573592.978      -83784.700       -2447.743          32.000  
G 4  20615733.054      -77406.032       -2244.491          39.500  
> 2014  7  3 10 11 54.9688020  0  2                     
G 6  22573549.613      -84029.443       -2447.905          31.750  
G 4  20615689.481      -77630.436       -2243.374          39.500  
> 2014  7  3 10 11 55.0688020  0  2                     
G 6  22573503.631      -84274.160       -2446.629          32.250  
G 4  20615646.792      -77854.821       -2242.907          39.500  
> 2014  7  3 10 11 55.1688020  0  2                     
G 6  22573456.442      -84518.907       -2445.498          32.500  
G 4  20615602.588      -78079.251       -2243.423          39.250  
> 2014  7  3 10 11 55.2688020  0  2                     
G 6  22573408.074      -84763.629       -2447.455          32.500  
G 4  20615560.616      -78303.635       -2243.536          39.000  
> 2014  7  3 10 11 55.3688020  0  2                     
G 6  22573365.094      -85008.320       -2447.251          32.500  
G 4  20615517.972      -78528.022       -2243.818          39.500  
> 2014  7  3 10 11 55.4688020  0  2                     
G 6  22573316.931      -85253.013       -2446.185          32.000  
G 4  20615475.558      -78752.368       -2243.334          39.500  
> 2014  7  3 10 11 55.5688020  0  2                     
G 6  22573268.450      -85497.711       -2446.413          32.250  
G 4  20615431.634      -78976.731       -2243.962          39.750  
> 2014  7  3 10 11 55.6688020  0  2                     
G 6  22573222.750      -85742.394       -2446.221          32.250  
G 4  20615388.690      -79201.089       -2244.164          39.500  
> 2014  7  3 10 11 55.7688020  0  2                     
G 6  22573180.480      -85987.050       -2446.019          32.250  
G 4  20615346.326      -79425.418       -2243.199          39.250  
> 2014  7  3 10 11 55.8688020  0  2                     
G 6  22573132.245      -86231.780       -2447.247          32.750  
G 4  20615304.848      -79649.780       -2244.042          39.500  
> 2014  7  3 10 11 55.9688020  0  2                     
G 6  22573086.090      -86476.440       -2446.506          32.500  
G 4  20615261.955      -79874.139       -2243.203          39.500  
> 2014  7  3 10 11 56.0688020  0  2                     
G 6  22573039.442      -86721.121       -2446.215          32.750  
G 4  20615220.693      -80098.484       -2243.449          39.250  
> 2014  7  3 10 11 56.1688020  0  2                     
G 6  22572990.835      -86965.846       -2447.318          32.500  
G 4  20615177.078      -80322.841       -2243.457          39.750  
> 2014  7  3 10 11 56.2688020  0  2                     
G 6  22572947.090      -87210.589       -2448.503          32.500  
G 4  20615133.012      -80547.271       -2244.334          39.750  
> 2014  7  3 10 11 56.3688020  0  2                     
G 6  22572906.088      -87455.396       -2448.824          32.250  
G 4  20615091.787      -80771.731       -2244.490          39.500  
> 2014  7  3 10 11 56.4688020  0  2                     
G 6  22572857.507      -87700.098       -2446.338          32.000  
G 4  20615049.168      -80996.105       -2243.299          39.250  
> 2014  7  3 10 11 56.5688020  0  2                     
G 6  22572810.106      -87944.832       -2446.308          32.500  
G 4  20615006.746      -81220.499       -2244.973          39.500  
> 2014  7  3 10 11 56.6688020  0  2                     
G 6  22572762.563      -88189.543       -2447.295          32.750  
G 4  20614964.531      -81444.847       -2243.699          39.500  
> 2014  7  3 10 11 56.7688020  0  2                     
G 6  22572717.962      -88434.217       -2449.051          32.250  
G 4  20614921.058      -81669.186       -2243.382          39.750  
> 2014  7  3 10 11 56.8688020  0  2                     
G 6  22572673.001      -88678.892       -2445.849          32.500  
G 4  20614877.652      -81893.526       -2242.764          39.250  
> 2014  7  3 10 11 56.9688020  0  2                     
G 6  22572624.874      -88923.549       -2446.227          32.500  
G 4  20614835.561      -82117.831       -2242.620          39.750  
> 2014  7  3 10 11 57.0688020  0  2                     
G 6  22572575.975      -89168.255       -2446.292          31.500  
G 4  20614792.808      -82342.200       -2243.378          39.750  
> 2014  7  3 10 11 57.1688020  0  2                     
G 6  22572528.360      -89412.972       -2445.958          31.750  
G 4  20614751.052      -82566.562       -2243.750          39.500  
> 2014  7  3 10 11 57.2688020  0  2                     
G 6  22572480.031      -89657.650       -2448.065          31.500  
G 4  20614708.230      -82790.892       -2243.482          39.750  
> 2014  7  3 10 11 57.3688020  0  2                     
G 6  22572430.409      -89902.340       -2447.948          31.750  
G 4  20614665.316      -83015.240       -2243.468          39.750  
> 2014  7  3 10 11 57.4688020  0  2                     
G 6  22572381.786      -90147.006       -2445.321          32.250  
G 4  20614622.624      -83239.579       -2243.504          40.000  
> 2014  7  3 10 11 57.5688020  0  2                     
G 6  22572332.703      -90391.686       -2446.171          31.500  
G 4  20614580.644      -83463.888       -2242.202          39.500  
> 2014  7  3 10 11 57.6688020  0  2                     
G 6  22572287.878      -90636.346       -2445.087          32.000  
G 4  20614539.350      -83688.219       -2243.475          39.750  
> 2014  7  3 10 11 57.7688020  0  2                     
G 6  22572241.733      -90881.013       -2446.342          31.750  
G 4  20614497.142      -83912.528       -2241.972          39.750  
> 2014  7  3 10 11 57.8688020  0  2                     
G 6  22572195.642      -91125.703       -2447.133          31.750  
G 4  20614451.970      -84136.844       -2243.479          39.750  
> 2014  7  3 10 11 57.9688020  0  2                     
G 6  22572149.604      -91370.411       -2445.927          31.750  
G 4  20614407.466      -84361.212       -2243.360          39.500  
> 2014  7  3 10 11 58.0688020  0  2                     
G 6  22572101.082      -91615.083       -2446.504          31.500  
G 4  20614366.897      -84585.534       -2243.032          39.750  
> 2014  7  3 10 11 58.1688020  0  2                     
G 6  22572052.779      -91859.777       -2446.317          31.750  
G 4  20614324.327      -84809.846       -2242.551          40.000  
> 2014  7  3 10 11 58.2688020  0  2                     
G 6  22572005.871      -92104.458       -2447.462          31.500  
G 4  20614279.910      -85034.168       -2243.261          39.500  
> 2014  7  3 10 11 58.3688020  0  2                     
G 6  22571958.001      -92349.141       -2446.611          31.500  
G 4  20614237.790      -85258.501       -2244.350          40.000  
> 2014  7  3 10 11 58.4688020  0  2                     
G 6  22571912.016      -92593.810       -2447.368          31.000  
G 4  20614195.585      -85482.829       -2242.774          39.750  
> 2014  7  3 10 11 58.5688020  0  2                     
G 6  22571863.531      -92838.471       -2446.195          31.000  
G 4  20614154.687      -85707.141       -2243.757          40.000  
> 2014  7  3 10 11 58.6688020  0  2                     
G 6  22571818.119      -93083.154       -2445.991          31.250  
G 4  20614112.665      -85931.433       -2243.516          40.000  
> 2014  7  3 10 11 58.7688020  0  2                     
G 6  22571771.020      -93327.841       -2448.270          31.000  
G 4  20614071.115      -86155.739       -2243.302          39.750  
> 2014  7  3 10 11 58.8688020  0  2                     
G 6  22571723.381      -93572.477       -2448.173          31.250  
G 4  20614028.385      -86380.045       -2243.127          39.750  
> 2014  7  3 10 11 58.9688020  0  2                     
G 6  22571676.708      -93817.133       -2446.265          30.750  
G 4  20613986.151      -86604.322       -2242.595          39.750  
> 2014  7  3 10 11 59.0688020  0  2                     
G 6  22571625.306      -94061.831       -2445.343          30.750  
G 4  20613942.997      -86828.639       -2243.268          40.250  
> 2014  7  3 10 11 59.1688020  0  2                     
G 6  22571575.639      -94306.503       -2447.174          31.250  
G 4  20613899.352      -87052.947       -2242.739          39.500  
> 2014  7  3 10 11 59.2688020  0  2                     
G 6  22571532.477      -94551.192       -2447.670          31.250  
G 4  20613858.180      -87277.275       -2243.059          39.750  
> 2014  7  3 10 11 59.3688020  0  2                     
G 6  22571485.174      -94795.890       -2446.187          31.250  
G 4  20613814.865      -87501.599       -2242.739          39.750  
> 2014  7  3 10 11 59.4688020  0  2                     
G 6  22571435.510      -95040.564       -2445.815          31.000  
G 4  20613770.709      -87725.936       -2242.624          39.750  
> 2014  7  3 10 11 59.5688020  0  2                     
G 6  22571391.435      -95285.267       -2444.854          31.250  
G 4  20613727.693      -87950.211       -2242.151          39.750  
> 2014  7  3 10 11 59.6688020  0  2                     
G 6  22571345.735      -95529.885       -2446.537          31.250  
G 4  20613685.327      -88174.458       -2242.624          39.750  
> 2014  7  3 10 11 59.7688020  0  2                     
G 6  22571301.521      -95774.483       -2445.139          30.750  
G 4  20613644.030      -88398.719       -2242.217          39.500  
> 2014  7  3 10 11 59.8688020  0  2                     
G 6  22571255.259      -96019.118       -2446.249          31.000  
G 4  20613600.859      -88622.974       -2243.121          40.000  
> 2014  7  3 10 11 59.9688020  0  2                     
G 6  22571207.613      -96263.762       -2446.380          31.000  
G 4  20613557.275      -88847.229       -2243.402          40.000  
> 2014  7  3 10 12  0.0688020  0  2                     
G 6  22571161.870      -96508.452       -2444.953          31.250  
G 4  20613514.190      -89071.572       -2243.842          39.750  
> 2014  7  3 10 12  0.1688020  0  2                     
G 6  22571116.711      -96753.153       -2444.698          31.000  
G 4  20613473.075      -89295.864       -2243.517          40.000  
> 2014  7  3 10 12  0.2688020  0  2                     
G 6  22571068.542      -96997.822       -2446.450          31.000  
G 4  20613431.299      -89520.150       -2243.167          40.000  
> 2014  7  3 10 12  0.3688020  0  2                     
G 6  22571022.636      -97242.460       -2445.248          31.250  
G 4  20613387.291      -89744.430       -2242.837          39.500  
> 2014  7  3 10 12  0.4688020  0  2                     
G 6  22570979.446      -97487.114       -2446.043          31.000  
G 4  20613343.996      -89968.704       -2241.976          39.750  
> 2014  7  3 10 12  0.5688020  0  2                     
G 6  22570932.102      -97731.738       -2447.689          31.500  
G 4  20613301.243      -90192.942       -2241.863          40.250  
> 2014  7  3 10 12  0.6688020  0  2                     
G 6  22570886.962      -97976.377       -2446.123          32.000  
G 4  20613256.920      -90417.202       -2242.637          40.000  
> 2014  7  3 10 12  0.7688020  0  2                     
G 6  22570840.337      -98221.032       -2446.592          31.500  
G 4  20613213.862      -90641.477       -2243.233          39.750  
> 2014  7  3 10 12  0.8688020  0  2                     
G 6  22570793.351      -98465.682       -2449.217          31.500  
G 4  20613168.915      -90865.731       -2242.100          39.750  
> 2014  7  3 10 12  0.9688020  0  2                     
G 6  22570746.925      -98710.328       -2444.234          31.500  
G 4  20613125.236      -91090.012       -2243.276          40.000  
> 2014  7  3 10 12  1.0688020  0  2                     
G 6  22570699.672      -98955.007       -2447.352          31.750  
G 4  20613083.065      -91314.309       -2243.439          40.000  
> 2014  7  3 10 12  1.1688020  0  2                     
G 6  22570654.380      -99199.727       -2448.643          31.250  
G 4  20613039.194      -91538.604       -2243.031          39.750  
> 2014  7  3 10 12  1.2688020  0  2                     
G 6  22570606.233      -99444.416       -2446.572          31.750  
G 4  20612997.783      -91762.927       -2243.695          39.750  
> 2014  7  3 10 12  1.3688020  0  2                     
G 6  22570560.965      -99689.126       -2446.209          32.000  
G 4  20612956.140      -91987.241       -2242.753          40.000  
> 2014  7  3 10 12  1.4688020  0  2                     
G 6  22570512.665      -99933.791       -2447.625          31.750  
G 4  20612913.269      -92211.537       -2242.927          39.750  
> 2014  7  3 10 12  1.5688020  0  2                     
G 6  22570467.852     -100178.456       -2447.562          32.250  
G 4  20612870.701      -92435.810       -2243.484          39.500  
> 2014  7  3 10 12  1.6688020  0  2                     
G 6  22570423.063     -100423.181       -2446.514          32.500  
G 4  20612829.120      -92660.124       -2241.742          39.750  
> 2014  7  3 10 12  1.7688020  0  2                     
G 6  22570378.472     -100667.867       -2447.167          32.250  
G 4  20612787.942      -92884.410       -2242.402          40.000  
> 2014  7  3 10 12  1.8688020  0  2                     
G 6  22570331.193     -100912.564       -2445.974          32.500  
G 4  20612745.457      -93108.743       -2243.222          40.250  
> 2014  7  3 10 12  1.9688020  0  2                     
G 6  22570288.708     -101157.290       -2445.803          32.000  
G 4  20612703.979      -93333.057       -2243.393          39.750  
> 2014  7  3 10 12  2.0688020  0  2                     
G 6  22570240.118     -101401.985       -2446.113          32.250  
G 4  20612662.465      -93557.390       -2243.288          40.000  
> 2014  7  3 10 12  2.1688020  0  2                     
G 6  22570192.176     -101646.661       -2446.006          32.500  
G 4  20612620.252      -93781.650       -2241.805          39.750  
> 2014  7  3 10 12  2.2688020  0  2                     
G 6  22570144.595     -101891.345       -2446.431          31.750  
G 4  20612574.574      -94005.896       -2243.334          40.000  
> 2014  7  3 10 12  2.3688020  0  2                     
G 6  22570098.244     -102136.021       -2446.850          32.000  
G 4  20612531.388      -94230.201       -2242.653          40.000  
> 2014  7  3 10 12  2.4688020  0  2                     
G 6  22570051.032     -102380.649       -2446.046          32.250  
G 4  20612489.465      -94454.443       -2242.509          40.000  
> 2014  7  3 10 12  2.5688020  0  2                     
G 6  22570004.441     -102625.280       -2446.402          32.750  
G 4  20612447.926      -94678.659       -2242.395          40.250  
> 2014  7  3 10 12  2.6688020  0  2                     
G 6  22569959.570     -102869.960       -2447.011          32.750  
G 4  20612407.008      -94902.922       -2243.371          40.250  
> 2014  7  3 10 12  2.7688020  0  2                     
G 6  22569913.612     -103114.617       -2445.999          33.000  
G 4  20612364.742      -95127.200       -2241.750          40.250  
> 2014  7  3 10 12  2.8688020  0  2                     
G 6  22569866.134     -103359.273       -2445.950          32.750  
G 4  20612321.842      -95351.446       -2242.002          40.250  
> 2014  7  3 10 12  2.9688020  0  2                     
G 6  22569820.816     -103603.948       -2447.608          33.000  
G 4  20612278.370      -95575.712       -2242.300          40.250  
> 2014  7  3 10 12  3.0688020  0  2                     
G 6  22569772.533     -103848.646       -2447.693          32.750  
G 4  20612236.752      -95800.020       -2242.951          40.250  
> 2014  7  3 10 12  3.1688020  0  2                     
G 6  22569724.512     -104093.319       -2446.455          32.750  
G 4  20612193.689      -96024.268       -2241.783          40.000  
> 2014  7  3 10 12  3.2688020  0  2                     
G 6  22569675.702     -104337.934       -2446.456          33.250  
G 4  20612151.010      -96248.490       -2242.009          40.250  
> 2014  7  3 10 12  3.3688020  0  2                     
G 6  22569628.362     -104582.614       -2446.906          33.250  
G 4  20612107.972      -96472.747       -2242.829          40.250  
> 2014  7  3 10 12  3.4688020  0  2                     
G 6  22569580.814     -104827.285       -2445.710          33.000  
G 4  20612063.541      -96697.032       -2242.105          40.000  
> 2014  7  3 10 12  3.5688020  0  2                     
G 6  22569533.558     -105071.939       -2445.997          33.750  
G 4  20612020.376      -96921.271       -2242.737          40.000  
> 2014  7  3 10 12  3.6688020  0  2                     
G 6  22569488.727     -105316.583       -2446.497          33.500  
G 4  20611978.177      -97145.501       -2242.003          40.000  
> 2014  7  3 10 12  3.7688020  0  2                     
G 6  22569444.108     -105561.148       -2445.469          33.250  
G 4  20611934.786      -97369.674       -2243.355          39.750  
> 2014  7  3 10 12  3.8688020  0  2                     
G 6  22569398.594     -105805.793       -2445.856          33.500  
G 4  20611892.400      -97593.861       -2242.759          40.250  
> 2014  7  3 10 12  3.9688020  0  2                     
G 6  22569349.543     -106050.399       -2446.138          33.500  
G 4  20611848.575      -97818.068       -2242.576          40.000  
> 2014  7  3 10 12  4.0688020  0  2                     
G 6  22569305.585     -106295.003       -2445.976          33.000  
G 4  20611803.947      -98042.283       -2242.596          40.000  
> 2014  7  3 10 12  4.1688020  0  2                     
G 6  22569258.950     -106539.614       -2444.368          33.000  
G 4  20611760.113      -98266.461       -2241.102          39.750  
> 2014  7  3 10 12  4.2688020  0  2                     
G 6  22569214.088     -106784.158       -2446.868          32.500  
G 4  20611718.621      -98490.606       -2241.346          39.500  
> 2014  7  3 10 12  4.3688020  0  2                     
G 6  22569165.653     -107028.764       -2445.496          33.250  
G 4  20611677.376      -98714.797       -2243.237          40.000  
> 2014  7  3 10 12  4.4688020  0  2                     
G 6  22569117.896     -107273.368       -2446.468          33.250  
G 4  20611634.914      -98938.973       -2240.625          40.000  
> 2014  7  3 10 12  4.5688020  0  2                     
G 6  22569070.211     -107517.958       -2445.924          33.000  
G 4  20611591.811      -99163.129       -2242.038          40.000  
> 2014  7  3 10 12  4.6688020  0  2                     
G 6  22569025.534     -107762.565       -2445.471          33.750  
G 4  20611551.009      -99387.324       -2241.545          40.000  
> 2014  7  3 10 12  4.7688020  0  2                     
G 6  22568978.733     -108007.165       -2446.298          33.250  
G 4  20611508.926      -99611.487       -2240.822          40.000  
> 2014  7  3 10 12  4.8688020  0  2                     
G 6  22568932.271     -108251.735       -2445.733          33.750  
G 4  20611466.116      -99835.656       -2241.480          40.000  
> 2014  7  3 10 12  4.9688020  0  2                     
G 6  22568888.312     -108496.360       -2446.507          33.500  
G 4  20611423.268     -100059.822       -2241.903          40.000  
> 2014  7  3 10 12  5.0688020  0  2                     
G 6  22568841.672     -108740.922       -2445.887          33.500  
G 4  20611379.919     -100283.986       -2241.720          40.000  
> 2014  7  3 10 12  5.1688020  0  2                     
G 6  22568794.683     -108985.504       -2446.302          33.750  
G 4  20611336.287     -100508.144       -2241.425          40.000  
> 2014  7  3 10 12  5.2688020  0  2                     
G 6  22568747.582     -109230.105       -2445.873          33.750  
G 4  20611292.850     -100732.305       -2241.708          40.000  
> 2014  7  3 10 12  5.3688020  0  2                     
G 6  22568700.437     -109474.693       -2446.094          33.750  
G 4  20611251.219     -100956.483       -2241.105          39.750  
> 2014  7  3 10 12  5.4688020  0  2                     
G 6  22568655.851     -109719.262       -2445.287          33.500  
G 4  20611208.542     -101180.609       -2240.539          40.000  
> 2014  7  3 10 12  5.5688020  0  2                     
G 6  22568608.558     -109963.818       -2445.841          33.500  
G 4  20611166.345     -101404.744       -2241.413          40.000  
> 2014  7  3 10 12  5.6688020  0  2                     
G 6  22568562.083     -110208.414       -2446.573          33.750  
G 4  20611122.148     -101628.898       -2241.462          40.000  
> 2014  7  3 10 12  5.7688020  0  2                     
G 6  22568519.275     -110452.940       -2446.156          34.000  
G 4  20611080.261     -101853.007       -2240.379          40.000  
> 2014  7  3 10 12  5.8688020  0  2                     
G 6  22568475.533     -110697.520       -2447.385          34.000  
G 4  20611039.724     -102077.164       -2241.890          39.750  
> 2014  7  3 10 12  5.9688020  0  2                     
G 6  22568430.107     -110942.135       -2446.210          34.250  
