     3.02           OBSERVATION DATA    M: Mixed            RINEX VERSION / TYPE
GNSS-SDRLIB v1.1                        20210507 190717 UTC PGM / RUN BY / DATE 
                                                            MARKER NAME         
                                                            MARKER NUMBER       
                                                            MARKER TYPE         
                                                            OBSERVER / AGENCY   
GNSS-SDRLIB         GNSS-SDRLIB         1.1                 REC # / TYPE / VERS 
                                                            ANT # / TYPE        
        0.0000        0.0000        0.0000                  APPROX POSITION XYZ 
        0.0000        0.0000        0.0000                  ANTENNA: DELTA H/E/N
G    4 C1C L1C D1C S1C                                      SYS / # / OBS TYPES 
R    4 C1C L1C D1C S1C                                      SYS / # / OBS TYPES 
E    4 C1C L1C D1C S1C                                      SYS / # / OBS TYPES 
J    4 C1C L1C D1C S1C                                      SYS / # / OBS TYPES 
S    4 C1C L1C D1C S1C                                      SYS / # / OBS TYPES 
C    4 C1C L1C D1C S1C                                      SYS / # / OBS TYPES 
  1970     1     1     0     0    0.0000000     GPS         TIME OF FIRST OBS   
  1970     1     1     0     0    0.0000000     GPS         TIME OF LAST OBS    
G                                                           SYS / PHASE SHIFT   
R                                                           SYS / PHASE SHIFT   
E                                                           SYS / PHASE SHIFT   
J                                                           SYS / PHASE SHIFT   
S                                                           SYS / PHASE SHIFT   
C                                                           SYS / PHASE SHIFT   
  0                                                         GLONASS SLOT / FRQ #
 C1C    0.000 C1P    0.000 C2C    0.000 C2P    0.000        GLONASS COD/PHS/BIS 
                                                            END OF HEADER       
> 2014  7  3 10 11 36.0688020  0  1                     
G20  20626412.532         961.114          70.064          45.000  
> 2014  7  3 10 11 36.1688020  0  4                     
G 1  21942382.898       31525.936        2032.792          44.250  
G 6  24915469.317      -37965.235       -2451.398          36.500  
G 4  22956880.602      -35371.738       -2249.457          40.000  
G20  20626414.419         968.098          69.426          45.000  
> 2014  7  3 10 11 36.2688020  0  4                     
G 1  21942422.231       31729.270        2032.925          44.000  
G 6  24915424.165      -38210.269       -2451.068          36.000  
G 4  22956837.046      -35596.662       -2249.711          40.000  
G20  20626417.062         975.130          69.886          45.000  
> 2014  7  3 10 11 36.3688020  0  4                     
G 1  21942460.204       31932.542        2032.288          44.250  
G 6  24915377.785      -38455.398       -2452.193          36.500  
G 4  22956794.103      -35821.620       -2249.194          39.750  
G20  20626419.854         982.115          70.082          45.000  
> 2014  7  3 10 11 36.4688020  0  4                     
G 1  21942499.584       32135.868        2033.336          44.250  
G 6  24915331.457      -38700.444       -2451.520          36.500  
G 4  22956750.341      -36046.528       -2249.165          40.000  
G20  20626423.713         989.152          70.496          45.000  
> 2014  7  3 10 11 36.5688020  0  4                     
G 1  21942538.386       32339.156        2032.156          44.250  
G 6  24915285.440      -38945.524       -2450.385          36.500  
G 4  22956706.899      -36271.491       -2249.383          39.750  
G20  20626428.380         996.164          70.424          44.750  
> 2014  7  3 10 11 36.6688020  0  4                     
G 1  21942577.453       32542.463        2033.959          44.250  
G 6  24915237.757      -39190.591       -2449.330          36.250  
G 4  22956664.754      -36496.434       -2249.300          39.750  
G20  20626427.618        1003.179          71.100          44.750  
> 2014  7  3 10 11 36.7688020  0  4                     
G 1  21942615.811       32745.766        2032.620          44.250  
G 6  24915191.357      -39435.671       -2451.729          36.500  
G 4  22956622.672      -36721.363       -2250.628          39.500  
G20  20626428.755        1010.221          69.644          45.000  
> 2014  7  3 10 11 36.8688020  0  4                     
G 1  21942655.305       32949.071        2032.889          44.000  
G 6  24915144.905      -39680.726       -2450.987          36.000  
G 4  22956577.743      -36946.277       -2249.084          39.750  
G20  20626428.799        1017.257          70.832          45.000  
> 2014  7  3 10 11 36.9688020  0  4                     
G 1  21942694.249       33152.367        2032.852          44.250  
G 6  24915098.119      -39925.820       -2451.724          36.250  
G 4  22956535.902      -37171.220       -2249.145          40.000  
G20  20626428.537        1024.290          70.064          44.750  
> 2014  7  3 10 11 37.0688020  0  4                     
G 1  21942732.201       33355.627        2033.102          44.000  
G 6  24915050.403      -40170.952       -2451.457          36.000  
G 4  22956493.567      -37396.214       -2249.952          40.000  
G20  20626428.908        1031.288          70.220          45.000  
> 2014  7  3 10 11 37.1688020  0  4                     
G 1  21942770.604       33558.933        2033.042          44.250  
G 6  24915004.875      -40416.011       -2450.670          35.750  
G 4  22956450.779      -37621.123       -2248.896          39.750  
G20  20626428.369        1038.346          70.670          44.750  
> 2014  7  3 10 11 37.2688020  0  4                     
G 1  21942808.840       33762.219        2032.557          44.250  
G 6  24914959.844      -40661.101       -2450.879          36.250  
G 4  22956409.104      -37846.083       -2248.974          40.000  
G20  20626429.012        1045.391          70.877          45.000  
> 2014  7  3 10 11 37.3688020  0  4                     
G 1  21942847.102       33965.488        2032.524          44.250  
G 6  24914914.228      -40906.190       -2450.188          36.000  
G 4  22956367.630      -38071.028       -2248.671          39.750  
G20  20626428.666        1052.424          70.702          45.000  
> 2014  7  3 10 11 37.4688020  0  4                     
G 1  21942887.146       34168.821        2032.867          44.250  
G 6  24914868.861      -41151.255       -2450.208          35.750  
G 4  22956324.735      -38295.949       -2249.552          39.500  
G20  20626429.192        1059.505          71.092          45.000  
> 2014  7  3 10 11 37.5688020  0  4                     
G 1  21942926.213       34372.115        2032.844          44.250  
G 6  24914820.779      -41396.341       -2450.497          36.000  
G 4  22956281.231      -38520.892       -2248.967          39.250  
G20  20626431.751        1066.564          70.605          45.000  
> 2014  7  3 10 11 37.6688020  0  4                     
G 1  21942964.492       34575.432        2033.685          44.250  
G 6  24914772.743      -41641.415       -2451.458          35.750  
G 4  22956237.529      -38745.817       -2249.544          39.750  
G20  20626434.002        1073.658          70.917          45.000  
> 2014  7  3 10 11 37.7688020  0  4                     
G 1  21943004.604       34778.770        2032.901          44.250  
G 6  24914725.754      -41886.441       -2450.012          35.500  
G 4  22956193.055      -38970.694       -2247.814          39.750  
G20  20626437.989        1080.771          71.404          44.750  
> 2014  7  3 10 11 37.8688020  0  4                     
G 1  21943042.831       34982.100        2032.895          44.250  
G 6  24914678.166      -42131.504       -2451.793          35.750  
G 4  22956150.742      -39195.575       -2247.859          39.500  
G20  20626442.796        1087.892          70.912          45.000  
> 2014  7  3 10 11 37.9688020  0  4                     
G 1  21943081.143       35185.445        2033.646          44.250  
G 6  24914629.581      -42376.515       -2449.385          35.500  
G 4  22956108.672      -39420.480       -2249.490          39.500  
G20  20626447.343        1095.023          71.386          45.000  
> 2014  7  3 10 11 38.0688020  0  4                     
G 1  21943119.696       35388.718        2032.901          44.250  
G 6  24914582.763      -42621.635       -2450.121          35.750  
G 4  22956065.905      -39645.417       -2249.001          39.750  
G20  20626446.753        1102.079          70.730          45.000  
> 2014  7  3 10 11 38.1688020  0  4                     
G 1  21943157.761       35592.035        2032.415          44.250  
G 6  24914537.211      -42866.699       -2450.751          35.500  
G 4  22956023.040      -39870.341       -2249.278          39.250  
G20  20626447.187        1109.194          71.513          45.000  
> 2014  7  3 10 11 38.2688020  0  4                     
G 1  21943195.808       35795.388        2033.404          44.250  
G 6  24914491.159      -43111.705       -2449.418          35.750  
G 4  22955980.695      -40095.208       -2248.648          39.500  
G20  20626446.504        1116.366          72.082          45.000  
> 2014  7  3 10 11 38.3688020  0  4                     
G 1  21943234.192       35998.762        2033.109          44.250  
G 6  24914443.274      -43356.719       -2450.738          35.750  
G 4  22955937.370      -40320.079       -2249.326          39.500  
G20  20626446.561        1123.536          71.345          45.000  
> 2014  7  3 10 11 38.4688020  0  4                     
G 1  21943272.806       36202.139        2034.027          44.250  
G 6  24914397.485      -43601.726       -2449.970          35.500  
G 4  22955894.383      -40544.913       -2247.938          39.750  
G20  20626446.870        1130.726          71.674          45.000  
> 2014  7  3 10 11 38.5688020  0  4                     
G 1  21943312.429       36405.509        2034.248          44.250  
G 6  24914350.480      -43846.762       -2450.454          35.250  
G 4  22955851.258      -40769.801       -2249.628          39.500  
G20  20626446.950        1137.892          71.648          45.000  
> 2014  7  3 10 11 38.6688020  0  4                     
G 1  21943351.264       36608.834        2033.787          44.250  
G 6  24914303.589      -44091.805       -2450.508          35.500  
G 4  22955808.091      -40994.669       -2248.019          39.750  
G20  20626447.173        1145.053          72.046          45.000  
> 2014  7  3 10 11 38.7688020  0  4                     
G 1  21943390.277       36812.208        2033.595          44.250  
G 6  24914255.117      -44336.816       -2451.352          35.500  
G 4  22955766.581      -41219.539       -2250.127          39.250  
G20  20626448.298        1152.252          72.251          45.000  
> 2014  7  3 10 11 38.8688020  0  4                     
G 1  21943428.173       37015.561        2033.757          44.250  
G 6  24914209.863      -44581.844       -2449.915          35.500  
G 4  22955724.963      -41444.404       -2247.610          39.500  
G20  20626449.573        1159.427          72.270          45.000  
> 2014  7  3 10 11 38.9688020  0  4                     
G 1  21943466.033       37218.929        2032.618          44.000  
G 6  24914162.279      -44826.852       -2450.674          35.000  
G 4  22955680.893      -41669.262       -2249.334          39.500  
G20  20626452.969        1166.633          71.842          44.750  
> 2014  7  3 10 11 39.0688020  0  4                     
G 1  21943504.112       37422.288        2033.724          44.250  
G 6  24914115.292      -45071.886       -2450.048          35.000  
G 4  22955638.085      -41894.117       -2247.715          39.750  
G20  20626456.358        1173.833          73.059          44.750  
> 2014  7  3 10 11 39.1688020  0  4                     
G 1  21943543.899       37625.682        2033.929          44.000  
G 6  24914066.586      -45316.886       -2448.979          35.000  
G 4  22955596.140      -42118.948       -2248.193          39.500  
G20  20626461.016        1181.064          71.489          45.000  
> 2014  7  3 10 11 39.2688020  0  4                     
G 1  21943582.796       37829.017        2032.880          44.250  
G 6  24914019.261      -45561.940       -2451.045          34.750  
G 4  22955551.873      -42343.833       -2248.366          39.500  
G20  20626464.655        1188.250          71.791          45.000  
> 2014  7  3 10 11 39.3688020  0  4                     
G 1  21943620.550       38032.360        2033.210          44.250  
G 6  24913971.369      -45806.964       -2451.949          34.500  
G 4  22955510.259      -42568.700       -2248.238          39.750  
G20  20626464.597        1195.459          71.783          45.000  
> 2014  7  3 10 11 39.4688020  0  4                     
G 1  21943659.052       38235.735        2033.875          44.250  
G 6  24913924.529      -46051.981       -2450.955          35.000  
G 4  22955466.813      -42793.558       -2248.322          39.250  
G20  20626464.546        1202.688          71.922          45.000  
> 2014  7  3 10 11 39.5688020  0  4                     
G 1  21943697.999       38439.116        2033.771          44.250  
G 6  24913878.041      -46296.985       -2449.878          35.000  
G 4  22955425.639      -43018.404       -2248.372          39.500  
G20  20626465.300        1209.923          71.893          45.000  
> 2014  7  3 10 11 39.6688020  0  4                     
G 1  21943736.591       38642.469        2032.914          44.250  
G 6  24913831.135      -46542.017       -2449.432          34.750  
G 4  22955382.845      -43243.269       -2248.460          39.500  
G20  20626464.637        1217.149          72.561          45.000  
> 2014  7  3 10 11 39.7688020  0  4                     
G 1  21943774.961       38845.826        2032.576          44.250  
G 6  24913786.398      -46787.062       -2450.667          34.750  
G 4  22955339.720      -43468.127       -2248.613          39.750  
G20  20626465.462        1224.385          72.027          45.250  
> 2014  7  3 10 11 39.8688020  0  4                     
G 1  21943814.241       39049.107        2032.668          44.250  
G 6  24913738.172      -47032.155       -2452.173          34.750  
G 4  22955295.407      -43693.057       -2249.778          39.750  
G20  20626464.903        1231.547          71.182          45.250  
> 2014  7  3 10 11 39.9688020  0  4                     
G 1  21943852.984       39252.407        2032.963          44.250  
G 6  24913691.662      -47277.243       -2451.223          34.750  
G 4  22955252.880      -43917.972       -2249.507          39.750  
G20  20626465.599        1238.734          71.958          45.250  
> 2014  7  3 10 11 40.0688020  0  4                     
G 1  21943891.120       39455.771        2033.313          44.250  
G 6  24913645.262      -47522.275       -2450.731          34.500  
G 4  22955211.575      -44142.828       -2248.437          39.750  
G20  20626466.178        1245.972          72.257          45.000  
> 2014  7  3 10 11 40.1688020  0  4                     
G 1  21943929.583       39659.107        2033.355          44.000  
G 6  24913596.566      -47767.318       -2451.509          34.500  
G 4  22955167.389      -44367.713       -2249.455          39.500  
G20  20626466.553        1253.201          72.137          45.250  
> 2014  7  3 10 11 40.2688020  0  4                     
G 1  21943968.227       39862.429        2033.938          44.250  
G 6  24913551.355      -48012.377       -2449.426          34.250  
G 4  22955124.600      -44592.597       -2248.176          39.500  
G20  20626468.346        1260.420          72.503          45.250  
> 2014  7  3 10 11 40.3688020  0  4                     
G 1  21944006.577       40065.800        2033.915          44.000  
G 6  24913503.456      -48257.413       -2451.164          34.250  
G 4  22955083.681      -44817.452       -2248.390          39.500  
G20  20626470.427        1267.701          73.214          45.250  
> 2014  7  3 10 11 40.4688020  0  4                     
G 1  21944046.346       40269.160        2033.256          44.000  
G 6  24913455.740      -48502.423       -2451.856          34.250  
G 4  22955040.871      -45042.292       -2247.927          39.500  
G20  20626472.998        1274.968          73.394          45.000  
> 2014  7  3 10 11 40.5688020  0  4                     
G 1  21944085.169       40472.520        2032.911          44.000  
G 6  24913410.015      -48747.457       -2451.302          34.500  
G 4  22954995.779      -45267.135       -2248.250          39.750  
G20  20626477.810        1282.249          72.422          45.000  
> 2014  7  3 10 11 40.6688020  0  4                     
G 1  21944123.403       40675.847        2033.513          44.000  
G 6  24913364.905      -48992.511       -2451.590          34.000  
G 4  22954954.102      -45492.033       -2249.047          39.750  
G20  20626483.510        1289.482          72.312          45.000  
> 2014  7  3 10 11 40.7688020  0  4                     
G 1  21944162.411       40879.187        2034.122          44.250  
G 6  24913318.567      -49237.569       -2450.428          34.000  
G 4  22954913.004      -45716.903       -2248.935          39.750  
G20  20626483.189        1296.750          72.875          45.000  
> 2014  7  3 10 11 40.8688020  0  4                     
G 1  21944201.327       41082.512        2032.700          44.250  
G 6  24913273.258      -49482.627       -2450.522          34.250  
G 4  22954869.014      -45941.780       -2248.309          40.000  
G20  20626483.459        1304.009          72.947          45.000  
> 2014  7  3 10 11 40.9688020  0  4                     
G 1  21944240.016       41285.834        2033.567          44.250  
G 6  24913226.174      -49727.696       -2451.248          34.000  
G 4  22954826.373      -46166.674       -2248.270          39.500  
G20  20626483.252        1311.253          72.223          45.000  
> 2014  7  3 10 11 41.0688020  0  4                     
G 1  21944278.677       41489.194        2033.690          44.250  
G 6  24913179.863      -49972.732       -2449.324          34.250  
G 4  22954782.655      -46391.530       -2248.452          39.750  
G20  20626483.146        1318.553          72.873          45.250  
> 2014  7  3 10 11 41.1688020  0  4                     
G 1  21944316.889       41692.529        2033.581          44.250  
G 6  24913133.874      -50217.791       -2450.719          34.000  
G 4  22954738.033      -46616.388       -2249.029          39.750  
G20  20626483.983        1325.823          72.620          45.250  
> 2014  7  3 10 11 41.2688020  0  4                     
G 1  21944354.913       41895.806        2032.907          44.000  
G 6  24913087.790      -50462.904       -2451.615          34.000  
G 4  22954694.721      -46841.322       -2248.299          39.500  
G20  20626485.194        1333.045          72.370          45.000  
> 2014  7  3 10 11 41.3688020  0  4                     
G 1  21944394.719       42099.139        2034.123          44.250  
G 6  24913039.787      -50707.954       -2450.509          34.000  
G 4  22954651.910      -47066.199       -2247.875          39.500  
G20  20626486.918        1340.342          73.811          45.250  
> 2014  7  3 10 11 41.4688020  0  4                     
G 1  21944434.115       42302.483        2033.158          44.250  
G 6  24912993.181      -50953.003       -2449.695          34.000  
G 4  22954612.484      -47291.061       -2248.820          39.500  
G20  20626489.299        1347.640          73.363          45.250  
> 2014  7  3 10 11 41.5688020  0  4                     
G 1  21944471.958       42505.829        2033.495          44.000  
G 6  24912947.976      -51198.068       -2450.505          34.500  
G 4  22954568.273      -47515.939       -2249.457          39.500  
G20  20626491.846        1354.934          73.185          45.000  
> 2014  7  3 10 11 41.6688020  0  4                     
G 1  21944511.051       42709.201        2034.115          44.000  
G 6  24912900.004      -51443.068       -2448.820          34.000  
G 4  22954527.817      -47740.756       -2247.332          39.750  
G20  20626495.409        1362.284          74.515          45.000  
> 2014  7  3 10 11 41.7688020  0  4                     
G 1  21944550.154       42912.601        2034.049          44.250  
G 6  24912852.156      -51688.072       -2450.234          34.250  
G 4  22954483.796      -47965.565       -2247.055          39.750  
G20  20626500.487        1369.642          73.715          45.000  
> 2014  7  3 10 11 41.8688020  0  4                     
G 1  21944588.511       43115.983        2034.123          44.250  
G 6  24912805.487      -51933.094       -2449.012          34.250  
G 4  22954440.054      -48190.386       -2248.259          40.000  
G20  20626501.753        1377.001          73.397          45.000  
> 2014  7  3 10 11 41.9688020  0  4                     
G 1  21944626.451       43319.394        2034.275          44.250  
G 6  24912758.957      -52178.064       -2449.721          34.250  
G 4  22954396.351      -48415.182       -2248.649          39.500  
G20  20626501.590        1384.394          73.534          45.250  
> 2014  7  3 10 11 42.0688020  0  4                     
G 1  21944665.512       43522.810        2034.400          44.250  
G 6  24912712.566      -52423.042       -2449.496          34.500  
G 4  22954353.340      -48639.968       -2247.662          39.500  
G20  20626502.000        1391.799          74.088          45.250  
> 2014  7  3 10 11 42.1688020  0  4                     
G 1  21944705.055       43726.194        2033.979          44.000  
G 6  24912668.779      -52668.055       -2449.648          34.250  
G 4  22954311.548      -48864.779       -2248.178          39.500  
G20  20626501.958        1399.177          74.268          45.250  
> 2014  7  3 10 11 42.2688020  0  4                     
G 1  21944744.246       43929.606        2034.283          44.250  
G 6  24912619.838      -52913.045       -2448.541          34.250  
G 4  22954267.144      -49089.579       -2247.759          39.750  
G20  20626501.199        1406.576          75.232          45.250  
> 2014  7  3 10 11 42.3688020  0  4                     
G 1  21944782.823       44133.027        2033.896          44.250  
G 6  24912572.014      -53158.019       -2449.656          34.000  
G 4  22954224.685      -49314.352       -2247.858          39.750  
G20  20626502.313        1413.995          74.206          45.000  
> 2014  7  3 10 11 42.4688020  0  4                     
G 1  21944821.887       44336.426        2033.654          44.000  
G 6  24912527.262      -53403.035       -2450.183          34.250  
G 4  22954183.101      -49539.147       -2248.338          39.750  
G20  20626502.008        1421.401          73.718          45.250  
> 2014  7  3 10 11 42.5688020  0  4                     
G 1  21944859.769       44539.867        2034.258          44.250  
G 6  24912481.753      -53647.979       -2450.344          33.750  
G 4  22954142.644      -49763.915       -2248.067          39.750  
G20  20626503.305        1428.850          74.930          45.000  
> 2014  7  3 10 11 42.6688020  0  4                     
G 1  21944898.808       44743.288        2033.732          44.250  
G 6  24912435.516      -53892.954       -2453.630          33.750  
G 4  22954100.743      -49988.696       -2247.507          40.000  
G20  20626504.206        1436.277          74.044          45.250  
> 2014  7  3 10 11 42.7688020  0  4                     
G 1  21944937.709       44946.683        2034.359          44.250  
G 6  24912389.842      -54137.947       -2450.464          34.000  
G 4  22954059.167      -50213.500       -2248.146          39.500  
G20  20626505.666        1443.688          74.377          45.000  
> 2014  7  3 10 11 42.8688020  0  4                     
G 1  21944976.398       45150.091        2034.357          44.000  
G 6  24912341.674      -54382.958       -2450.539          34.250  
G 4  22954016.424      -50438.278       -2246.688          39.750  
G20  20626507.331        1451.121          74.234          45.000  
> 2014  7  3 10 11 42.9688020  0  4                     
G 1  21945015.728       45353.544        2033.711          44.000  
G 6  24912294.204      -54627.882       -2450.252          34.000  
G 4  22953973.160      -50663.027       -2248.504          39.750  
G20  20626511.286        1458.608          74.581          45.000  
> 2014  7  3 10 11 43.0688020  0  4                     
G 1  21945053.713       45556.955        2033.792          44.250  
G 6  24912249.453      -54872.893       -2450.082          34.250  
G 4  22953929.499      -50887.825       -2247.820          40.000  
G20  20626516.475        1466.043          74.082          45.000  
> 2014  7  3 10 11 43.1688020  0  4                     
G 1  21945092.456       45760.395        2034.286          44.250  
G 6  24912203.031      -55117.831       -2449.129          34.000  
G 4  22953887.476      -51112.564       -2247.897          40.250  
G20  20626519.494        1473.535          74.972          45.250  
> 2014  7  3 10 11 43.2688020  0  4                     
G 1  21945130.405       45963.817        2034.375          44.250  
G 6  24912154.944      -55362.814       -2450.312          34.500  
G 4  22953844.331      -51337.333       -2247.579          40.000  
G20  20626520.027        1480.995          74.510          45.000  
> 2014  7  3 10 11 43.3688020  0  4                     
G 1  21945168.855       46167.285        2034.323          44.250  
G 6  24912108.940      -55607.728       -2448.588          33.750  
G 4  22953801.948      -51562.056       -2247.151          40.000  
G20  20626520.256        1488.505          74.901          45.000  
> 2014  7  3 10 11 43.4688020  0  4                     
G 1  21945207.389       46370.724        2035.053          44.250  
G 6  24912063.202      -55852.709       -2449.171          34.000  
G 4  22953759.039      -51786.819       -2248.225          39.750  
G20  20626520.391        1495.997          75.278          45.250  
> 2014  7  3 10 11 43.5688020  0  4                     
G 1  21945246.266       46574.171        2035.356          44.250  
G 6  24912015.612      -56097.678       -2449.467          34.000  
G 4  22953714.225      -52011.566       -2246.792          40.000  
G20  20626519.641        1503.490          74.992          45.000  
> 2014  7  3 10 11 43.6688020  0  4                     
G 1  21945285.861       46777.636        2034.495          44.250  
G 6  24911964.756      -56342.596       -2449.080          34.000  
G 4  22953672.253      -52236.291       -2247.036          40.250  
G20  20626520.937        1511.020          75.008          45.250  
> 2014  7  3 10 11 43.7688020  0  4                     
G 1  21945323.399       46981.033        2033.706          44.250  
G 6  24911919.051      -56587.593       -2451.417          33.750  
G 4  22953629.853      -52461.081       -2247.637          40.000  
G20  20626521.604        1518.482          74.215          45.000  
> 2014  7  3 10 11 43.8688020  0  4                     
G 1  21945361.870       47184.427        2033.991          44.250  
G 6  24911872.190      -56832.581       -2449.604          33.500  
G 4  22953588.217      -52685.882       -2247.781          39.750  
G20  20626523.611        1525.937          73.808          45.000  
> 2014  7  3 10 11 43.9688020  0  4                     
G 1  21945400.209       47387.872        2035.114          44.250  
G 6  24911826.170      -57077.556       -2448.282          34.000  
G 4  22953546.904      -52910.623       -2247.219          39.750  
G20  20626526.694        1533.472          75.899          45.250  
> 2014  7  3 10 11 44.0688020  0  4                     
G 1  21945438.674       47591.334        2034.832          44.250  
G 6  24911782.038      -57322.504       -2451.667          33.750  
G 4  22953504.062      -53135.347       -2247.390          40.000  
G20  20626528.238        1541.010          75.232          45.250  
> 2014  7  3 10 11 44.1688020  0  4                     
G 1  21945476.216       47794.770        2033.818          44.250  
G 6  24911732.728      -57567.466       -2450.840          33.750  
G 4  22953457.866      -53360.082       -2247.042          39.750  
G20  20626532.188        1548.543          74.927          45.000  
> 2014  7  3 10 11 44.2688020  0  4                     
G 1  21945514.316       47998.216        2034.528          44.000  
G 6  24911686.612      -57812.418       -2449.257          33.750  
G 4  22953413.859      -53584.816       -2246.326          39.750  
G20  20626537.310        1556.082          75.937          45.000  
> 2014  7  3 10 11 44.3688020  0  4                     
G 1  21945553.454       48201.670        2035.227          44.250  
G 6  24911636.838      -58057.346       -2447.791          33.500  
G 4  22953373.467      -53809.573       -2247.645          39.750  
G20  20626537.861        1563.630          75.839          45.000  
> 2014  7  3 10 11 44.4688020  0  4                     
G 1  21945592.525       48405.111        2034.847          44.250  
G 6  24911593.232      -58302.321       -2448.650          34.000  
G 4  22953330.708      -54034.296       -2246.441          39.500  
G20  20626538.140        1571.168          75.955          45.250  
> 2014  7  3 10 11 44.5688020  0  4                     
G 1  21945631.899       48608.556        2033.481          44.250  
G 6  24911543.042      -58547.273       -2450.857          33.500  
G 4  22953288.260      -54259.051       -2247.756          40.000  
G20  20626537.616        1578.713          74.182          45.250  
> 2014  7  3 10 11 44.6688020  0  4                     
G 1  21945671.209       48811.982        2033.492          44.250  
G 6  24911497.130      -58792.259       -2450.007          34.000  
G 4  22953245.208      -54483.805       -2246.756          40.000  
G20  20626538.022        1586.259          75.370          45.250  
> 2014  7  3 10 11 44.7688020  0  4                     
G 1  21945710.321       49015.401        2034.110          44.000  
G 6  24911448.651      -59037.231       -2449.630          34.000  
G 4  22953201.223      -54708.587       -2247.472          40.000  
G20  20626538.603        1593.795          75.843          45.250  
> 2014  7  3 10 11 44.8688020  0  4                     
G 1  21945749.005       49218.853        2034.709          44.250  
G 6  24911402.420      -59282.192       -2450.394          33.500  
G 4  22953157.523      -54933.319       -2248.042          39.750  
G20  20626538.433        1601.355          75.420          45.000  
> 2014  7  3 10 11 44.9688020  0  4                     
G 1  21945788.168       49422.295        2034.319          44.250  
G 6  24911357.924      -59527.150       -2448.542          33.250  
G 4  22953113.525      -55158.053       -2247.949          40.000  
G20  20626539.269        1608.919          75.296          45.250  
> 2014  7  3 10 11 45.0688020  0  4                     
G 1  21945827.379       49625.753        2034.406          44.250  
G 6  24911311.412      -59772.097       -2449.603          33.500  
G 4  22953070.693      -55382.787       -2247.361          40.000  
G20  20626539.754        1616.504          76.054          45.250  
> 2014  7  3 10 11 45.1688020  0  4                     
G 1  21945865.448       49829.208        2034.220          44.250  
G 6  24911266.695      -60017.052       -2451.920          34.000  
G 4  22953030.371      -55607.494       -2247.197          39.750  
G20  20626540.233        1624.098          75.955          45.250  
> 2014  7  3 10 11 45.2688020  0  4                     
G 1  21945904.560       50032.669        2035.017          44.250  
G 6  24911219.135      -60261.993       -2450.311          33.500  
G 4  22952986.941      -55832.219       -2247.825          39.750  
G20  20626542.486        1631.689          75.648          45.250  
> 2014  7  3 10 11 45.3688020  0  4                     
G 1  21945943.071       50236.106        2034.358          44.250  
G 6  24911169.363      -60506.968       -2450.488          33.750  
G 4  22952944.596      -56056.969       -2247.913          39.750  
G20  20626545.477        1639.274          76.227          45.000  
> 2014  7  3 10 11 45.4688020  0  4                     
G 1  21945981.351       50439.559        2034.204          44.250  
G 6  24911123.187      -60751.908       -2451.274          33.500  
G 4  22952902.045      -56281.687       -2248.319          39.750  
G20  20626549.213        1646.886          75.767          45.250  
> 2014  7  3 10 11 45.5688020  0  4                     
G 1  21946019.513       50642.987        2034.588          44.000  
G 6  24911076.946      -60996.897       -2449.742          33.750  
G 4  22952859.704      -56506.435       -2247.045          39.750  
G20  20626553.670        1654.465          75.883          45.000  
> 2014  7  3 10 11 45.6688020  0  4                     
G 1  21946059.690       50846.438        2034.767          44.250  
G 6  24911032.193      -61241.842       -2449.724          33.750  
G 4  22952815.414      -56731.164       -2247.436          39.500  
G20  20626556.137        1662.073          76.276          45.000  
> 2014  7  3 10 11 45.7688020  0  4                     
G 1  21946097.889       51049.902        2034.137          44.250  
G 6  24910986.943      -61486.792       -2448.215          33.500  
G 4  22952771.456      -56955.871       -2247.147          39.500  
G20  20626556.572        1669.710          76.738          45.000  
> 2014  7  3 10 11 45.8688020  0  4                     
G 1  21946137.267       51253.383        2034.731          44.000  
G 6  24910941.344      -61731.713       -2448.633          33.500  
G 4  22952730.154      -57180.574       -2247.510          39.500  
G20  20626556.145        1677.341          76.257          45.250  
> 2014  7  3 10 11 45.9688020  0  4                     
G 1  21946175.278       51456.844        2034.760          44.000  
G 6  24910891.186      -61976.647       -2447.993          33.750  
G 4  22952688.526      -57405.283       -2247.187          39.750  
G20  20626556.566        1684.999          77.138          45.000  
> 2014  7  3 10 11 46.0688020  0  4                     
G 1  21946214.236       51660.327        2035.426          44.250  
G 6  24910846.759      -62221.591       -2450.259          33.250  
G 4  22952645.467      -57629.978       -2247.049          39.750  
G20  20626556.348        1692.641          76.427          45.250  
> 2014  7  3 10 11 46.1688020  0  4                     
G 1  21946252.644       51863.827        2035.491          44.250  
G 6  24910801.420      -62466.488       -2447.542          32.750  
G 4  22952603.182      -57854.655       -2246.922          40.000  
G20  20626556.576        1700.327          77.044          45.250  
> 2014  7  3 10 11 46.2688020  0  4                     
G 1  21946290.113       52067.299        2034.799          44.250  
G 6  24910752.578      -62711.424       -2449.361          33.250  
G 4  22952560.091      -58079.349       -2246.749          39.750  
G20  20626557.046        1707.994          76.786          45.250  
> 2014  7  3 10 11 46.3688020  0  4                     
G 1  21946329.122       52270.784        2035.253          44.000  
G 6  24910706.092      -62956.365       -2449.199          32.750  
G 4  22952518.449      -58304.046       -2247.648          39.750  
G20  20626557.483        1715.663          77.091          45.000  
> 2014  7  3 10 11 46.4688020  0  4                     
G 1  21946367.755       52474.265        2034.884          44.000  
G 6  24910660.642      -63201.285       -2450.304          33.250  
G 4  22952475.993      -58528.726       -2246.639          39.500  
G20  20626559.540        1723.357          77.154          45.000  
> 2014  7  3 10 11 46.5688020  0  4                     
G 1  21946406.603       52677.791        2036.060          44.000  
G 6  24910615.121      -63446.155       -2448.585          33.250  
G 4  22952433.318      -58753.375       -2245.487          39.500  
G20  20626562.142        1731.075          77.139          45.000  
> 2014  7  3 10 11 46.6688020  0  4                     
G 1  21946445.779       52881.294        2034.762          44.000  
G 6  24910566.850      -63691.062       -2449.207          33.250  
G 4  22952392.749      -58978.036       -2246.820          39.500  
G20  20626565.438        1738.785          76.335          45.000  
> 2014  7  3 10 11 46.7688020  0  4                     
G 1  21946485.443       53084.852        2036.340          44.000  
G 6  24910520.044      -63935.919       -2448.107          33.500  
G 4  22952351.113      -59202.667       -2245.859          39.500  
G20  20626568.984        1746.540          77.957          45.000  
> 2014  7  3 10 11 46.8688020  0  4                     
G 1  21946524.761       53288.404        2035.238          44.000  
G 6  24910474.654      -64180.797       -2451.174          32.750  
G 4  22952306.657      -59427.278       -2246.639          39.500  
G20  20626573.747        1754.312          77.325          45.000  
> 2014  7  3 10 11 46.9688020  0  4                     
G 1  21946563.185       53491.954        2035.564          44.000  
G 6  24910427.893      -64425.639       -2448.284          33.000  
G 4  22952265.541      -59651.900       -2245.905          39.500  
G20  20626574.767        1762.089          78.096          45.000  
> 2014  7  3 10 11 47.0688020  0  4                     
G 1  21946601.298       53695.501        2036.014          44.250  
G 6  24910381.358      -64670.497       -2447.921          32.750  
G 4  22952223.626      -59876.521       -2245.819          39.500  
G20  20626574.692        1769.860          77.994          45.000  
> 2014  7  3 10 11 47.1688020  0  4                     
G 1  21946639.296       53899.028        2035.181          44.000  
G 6  24910337.369      -64915.408       -2448.203          33.000  
G 4  22952180.190      -60101.158       -2245.899          39.250  
G20  20626575.108        1777.625          77.556          45.000  
> 2014  7  3 10 11 47.2688020  0  4                     
G 1  21946678.375       54102.570        2036.120          44.250  
G 6  24910291.209      -65160.252       -2448.352          33.250  
G 4  22952136.310      -60325.805       -2246.145          39.250  
G20  20626575.327        1785.396          77.763          45.000  
> 2014  7  3 10 11 47.3688020  0  4                     
G 1  21946716.815       54306.106        2035.411          44.000  
G 6  24910244.499      -65405.123       -2447.714          32.500  
G 4  22952091.510      -60550.401       -2247.203          39.750  
G20  20626575.614        1793.195          78.283          45.000  
> 2014  7  3 10 11 47.4688020  0  4                     
G 1  21946754.890       54509.652        2035.688          44.000  
G 6  24910199.825      -65650.013       -2448.141          33.000  
G 4  22952048.006      -60775.033       -2245.668          39.500  
G20  20626575.757        1800.976          78.245          45.250  
> 2014  7  3 10 11 47.5688020  0  4                     
G 1  21946793.553       54713.172        2036.098          44.250  
G 6  24910151.063      -65894.875       -2447.522          33.000  
G 4  22952006.851      -60999.668       -2245.591          39.750  
G20  20626575.428        1808.750          78.129          45.250  
> 2014  7  3 10 11 47.6688020  0  4                     
G 1  21946833.022       54916.723        2035.421          44.000  
G 6  24910106.660      -66139.756       -2448.778          33.000  
G 4  22951963.559      -61224.285       -2245.823          40.000  
G20  20626576.987        1816.554          77.969          45.000  
> 2014  7  3 10 11 47.7688020  0  4                     
G 1  21946872.038       55120.279        2036.045          44.250  
G 6  24910057.390      -66384.587       -2447.759          32.750  
G 4  22951919.997      -61448.899       -2245.725          39.750  
G20  20626577.631        1824.359          77.892          45.250  
> 2014  7  3 10 11 47.8688020  0  4                     
G 1  21946910.151       55323.815        2036.158          44.250  
G 6  24910013.281      -66629.471       -2448.853          33.000  
G 4  22951877.882      -61673.509       -2246.138          39.500  
G20  20626579.951        1832.171          78.967          45.250  
> 2014  7  3 10 11 47.9688020  0  4                     
G 1  21946949.537       55527.417        2035.855          44.250  
G 6  24909968.183      -66874.307       -2447.031          33.000  
G 4  22951836.076      -61898.085       -2245.872          39.750  
G20  20626582.560        1840.039          79.074          45.000  
> 2014  7  3 10 11 48.0688020  0  4                     
G 1  21946988.251       55730.989        2035.659          44.250  
G 6  24909918.844      -67119.133       -2448.067          32.750  
G 4  22951792.354      -62122.675       -2245.363          39.750  
G20  20626586.800        1847.882          78.766          45.000  
> 2014  7  3 10 11 48.1688020  0  4                     
G 1  21947027.900       55934.561        2035.298          44.250  
G 6  24909871.736      -67363.990       -2450.135          32.250  
G 4  22951748.305      -62347.262       -2246.457          39.750  
G20  20626593.165        1855.740          78.795          45.000  
> 2014  7  3 10 11 48.2688020  0  4                     
G 1  21947066.591       56138.145        2035.847          44.250  
G 6  24909826.205      -67608.798       -2447.783          32.750  
G 4  22951705.881      -62571.845       -2245.856          39.750  
G20  20626593.565        1863.603          78.442          45.250  
> 2014  7  3 10 11 48.3688020  0  4                     
G 1  21947105.290       56341.717        2035.617          44.500  
G 6  24909781.980      -67853.662       -2447.934          32.250  
G 4  22951663.752      -62796.420       -2245.249          39.500  
G20  20626592.930        1871.465          78.232          45.250  
> 2014  7  3 10 11 48.4688020  0  4                     
G 1  21947144.787       56545.295        2036.266          44.250  
G 6  24909733.725      -68098.481       -2447.348          32.750  
G 4  22951620.345      -63021.006       -2245.885          40.000  
G20  20626593.380        1879.335          79.063          45.250  
> 2014  7  3 10 11 48.5688020  0  4                     
G 1  21947183.602       56748.856        2035.597          44.250  
G 6  24909690.355      -68343.348       -2448.397          32.750  
G 4  22951578.508      -63245.605       -2246.034          39.750  
G20  20626593.403        1887.201          78.314          45.250  
> 2014  7  3 10 11 48.6688020  0  4                     
G 1  21947222.583       56952.426        2036.313          44.250  
G 6  24909641.670      -68588.182       -2447.494          32.250  
G 4  22951535.446      -63470.180       -2246.021          40.000  
G20  20626593.934        1895.069          78.695          45.250  
> 2014  7  3 10 11 48.7688020  0  4                     
G 1  21947260.006       57155.996        2035.965          44.250  
G 6  24909595.524      -68833.022       -2447.901          32.500  
G 4  22951493.892      -63694.772       -2246.101          40.000  
G20  20626595.140        1902.962          79.086          45.500  
> 2014  7  3 10 11 48.8688020  0  4                     
G 1  21947299.242       57359.577        2035.760          44.250  
G 6  24909547.731      -69077.871       -2449.278          32.500  
G 4  22951450.794      -63919.340       -2245.559          40.000  
G20  20626594.898        1910.855          78.747          45.250  
> 2014  7  3 10 11 48.9688020  0  4                     
G 1  21947336.983       57563.160        2036.210          44.500  
G 6  24909498.177      -69322.699       -2447.121          32.250  
G 4  22951406.962      -64143.913       -2245.018          40.000  
G20  20626596.772        1918.753          79.542          45.250  
> 2014  7  3 10 11 49.0688020  0  4                     
G 1  21947376.814       57766.735        2035.329          44.500  
G 6  24909451.203      -69567.531       -2448.460          31.750  
G 4  22951364.616      -64368.497       -2246.085          40.250  
G20  20626598.316        1926.658          79.786          45.250  
> 2014  7  3 10 11 49.1688020  0  4                     
G 1  21947415.806       57970.280        2035.515          44.250  
G 6  24909403.794      -69812.436       -2449.827          31.750  
G 4  22951320.772      -64593.100       -2246.526          39.500  
G20  20626600.691        1934.523          79.213          45.000  
> 2014  7  3 10 11 49.2688020  0  4                     
G 1  21947454.838       58173.850        2035.869          44.250  
G 6  24909356.717      -70057.274       -2447.016          32.000  
G 4  22951278.742      -64817.697       -2245.389          39.750  
G20  20626604.122        1942.415          79.205          45.000  
> 2014  7  3 10 11 49.3688020  0  4                     
G 1  21947493.025       58377.408        2036.365          44.250  
G 6  24909311.373      -70302.137       -2447.799          32.000  
G 4  22951236.747      -65042.295       -2245.999          40.000  
G20  20626609.466        1950.318          78.772          45.000  
> 2014  7  3 10 11 49.4688020  0  4                     
G 1  21947532.025       58581.025        2037.525          44.250  
G 6  24909258.496      -70546.918       -2448.388          31.500  
G 4  22951195.900      -65266.820       -2244.780          39.750  
G20  20626611.572        1958.270          80.273          45.250  
> 2014  7  3 10 11 49.5688020  0  4                     
G 1  21947570.023       58784.636        2035.350          44.250  
G 6  24909212.840      -70791.752       -2449.361          31.500  
G 4  22951150.476      -65491.362       -2246.370          39.750  
G20  20626611.048        1966.233          79.242          45.250  
> 2014  7  3 10 11 49.6688020  0  4                     
G 1  21947609.398       58988.254        2036.774          44.250  
G 6  24909169.354      -71036.524       -2448.530          31.750  
G 4  22951107.997      -65715.881       -2244.418          39.500  
G20  20626611.334        1974.212          80.277          45.250  
> 2014  7  3 10 11 49.7688020  0  4                     
G 1  21947648.412       59191.895        2036.404          44.250  
G 6  24909123.164      -71281.347       -2446.840          31.250  
G 4  22951065.298      -65940.390       -2244.289          39.500  
G20  20626612.497        1982.198          80.082          45.250  
> 2014  7  3 10 11 49.8688020  0  4                     
G 1  21947687.293       59395.526        2035.676          44.250  
G 6  24909073.556      -71526.131       -2448.689          30.500  
G 4  22951022.072      -66164.911       -2245.245          39.500  
G20  20626613.334        1990.190          79.585          45.250  
> 2014  7  3 10 11 49.9688020  0  4                     
G 1  21947726.554       59599.151        2036.413          44.250  
G 6  24909026.610      -71770.900       -2449.530          31.000  
G 4  22950980.605      -66389.440       -2245.519          40.000  
G20  20626613.463        1998.184          80.197          45.250  
> 2014  7  3 10 11 50.0688020  0  4                     
G 1  21947765.998       59802.730        2035.275          44.250  
G 6  24908972.528      -72015.766       -2449.512          30.500  
G 4  22950936.561      -66613.999       -2245.735          39.750  
G20  20626614.514        2006.139          78.762          45.500  
> 2014  7  3 10 11 50.1688020  0  4                     
G 1  21947803.828       60006.322        2035.964          44.500  
G 6  24908926.604      -72260.562       -2449.017          30.250  
G 4  22950894.145      -66838.553       -2245.655          39.750  
G20  20626617.070        2014.107          79.388          45.250  
> 2014  7  3 10 11 50.2688020  0  4                     
G 1  21947842.452       60209.914        2036.047          44.250  
G 6  24908880.571      -72505.396       -2447.798          31.000  
G 4  22950851.772      -67063.109       -2245.884          39.500  
G20  20626618.565        2022.076          79.826          45.250  
> 2014  7  3 10 11 50.3688020  0  4                     
G 1  21947880.932       60413.532        2036.118          44.250  
G 6  24908834.058      -72750.233       -2447.610          30.500  
G 4  22950808.623      -67287.635       -2245.149          39.750  
G20  20626622.734        2030.078          80.007          45.250  
> 2014  7  3 10 11 50.4688020  0  4                     
G 1  21947919.062       60617.115        2035.419          44.250  
G 6  24908788.343      -72995.060       -2450.557          30.750  
G 4  22950766.247      -67512.192       -2245.778          39.750  
G20  20626625.901        2038.063          79.932          45.250  
> 2014  7  3 10 11 50.5688020  0  4                     
G 1  21947957.680       60820.766        2036.591          44.250  
G 6  24908740.546      -73239.839       -2447.296          30.000  
G 4  22950722.666      -67736.675       -2244.424          39.750  
G20  20626629.332        2046.103          80.845          45.250  
> 2014  7  3 10 11 50.6688020  0  4                     
G 1  21947997.026       61024.399        2035.864          44.250  
G 6  24908692.420      -73484.634       -2448.616          30.250  
G 4  22950679.696      -67961.196       -2244.938          39.500  
G20  20626630.116        2054.143          80.022          45.250  
> 2014  7  3 10 11 50.7688020  0  4                     
G 1  21948035.795       61228.010        2036.339          44.250  
G 6  24908651.608      -73729.446       -2449.662          30.250  
G 4  22950637.123      -68185.726       -2245.654          39.500  
G20  20626629.630        2062.153          80.160          45.250  
> 2014  7  3 10 11 50.8688020  0  4                     
G 1  21948073.759       61431.638        2036.595          44.250  
G 6  24908605.516      -73974.215       -2447.647          30.250  
G 4  22950593.924      -68410.243       -2245.400          39.500  
G20  20626629.892        2070.191          80.334          45.000  
> 2014  7  3 10 11 50.9688020  0  4                     
G 1  21948113.080       61635.256        2035.852          44.250  
G 6  24908558.613      -74219.035       -2448.132          30.250  
G 4  22950549.658      -68634.763       -2245.054          39.500  
G20  20626629.671        2078.224          80.595          45.250  
> 2014  7  3 10 11 51.0688020  0  4                     
G 1  21948151.578       61838.850        2035.389          44.250  
G 6  24908509.256      -74463.870       -2448.869          30.250  
G 4  22950509.549      -68859.303       -2245.708          39.250  
G20  20626630.950        2086.240          79.712          45.250  
> 2014  7  3 10 11 51.1688020  0  4                     
G 1  21948190.106       62042.519        2037.059          44.000  
G 6  24908466.171      -74708.643       -2447.072          30.500  
G 4  22950465.672      -69083.792       -2244.932          39.500  
G20  20626631.307        2094.327          80.797          45.250  
> 2014  7  3 10 11 51.2688020  0  4                     
G 1  21948228.868       62246.184        2036.391          44.000  
G 6  24908416.841      -74953.387       -2447.985          30.250  
G 4  22950424.727      -69308.245       -2244.942          39.500  
G20  20626632.337        2102.444          81.253          45.250  
> 2014  7  3 10 11 51.3688020  0  4                     
G 1  21948267.411       62449.856        2036.512          44.250  
G 6  24908370.655      -75198.139       -2450.173          30.000  
G 4  22950380.671      -69532.730       -2245.584          39.500  
G20  20626633.143        2110.534          81.088          45.250  
> 2014  7  3 10 11 51.4688020  0  4                     
G 1  21948305.148       62653.493        2036.709          44.250  
G 6  24908320.518      -75442.932       -2447.064          29.750  
G 4  22950338.302      -69757.231       -2245.411          39.250  
G20  20626635.675        2118.613          81.093          45.000  
> 2014  7  3 10 11 51.5688020  0  4                     
G 1  21948344.424       62857.125        2035.805          44.250  
G 6  24908274.098      -75687.711       -2445.819          29.500  
G 4  22950295.980      -69981.730       -2244.820          39.750  
G20  20626637.964        2126.692          80.912          45.250  
> 2014  7  3 10 11 51.6688020  0  4                     
G 1  21948382.374       63060.760        2035.738          44.250  
G 6  24908228.476      -75932.510       -2447.875          29.500  
G 4  22950252.129      -70206.232       -2245.583          39.500  
G20  20626642.148        2134.771          80.549          45.250  
> 2014  7  3 10 11 51.7688020  0  4                     
G 1  21948421.513       63264.400        2037.010          44.000  
G 6  24908186.245      -76177.315       -2447.279          29.750  
G 4  22950210.630      -70430.723       -2244.710          39.500  
G20  20626645.724        2142.868          81.806          45.000  
> 2014  7  3 10 11 51.8688020  0  4                     
G 1  21948459.810       63468.104        2036.973          44.250  
G 6  24908140.046      -76422.020       -2449.769          30.250  
G 4  22950167.616      -70655.165       -2245.028          39.500  
G20  20626647.725        2151.024          80.792          45.250  
> 2014  7  3 10 11 51.9688020  0  4                     
G 1  21948499.294       63671.782        2036.810          44.250  
G 6  24908093.992      -76666.754       -2447.000          30.000  
G 4  22950124.907      -70879.615       -2243.645          39.750  
G20  20626647.661        2159.171          80.943          45.500  
> 2014  7  3 10 11 52.0688020  0  4                     
G 1  21948537.756       63875.460        2037.099          44.250  
G 6  24908046.400      -76911.513       -2447.478          31.000  
G 4  22950082.901      -71104.078       -2243.723          39.750  
G20  20626648.117        2167.307          81.219          45.250  
> 2014  7  3 10 11 52.1688020  0  4                     
G 1  21948574.910       64079.133        2037.343          44.250  
G 6  24908003.445      -77156.291       -2448.103          30.750  
G 4  22950038.202      -71328.540       -2244.104          39.750  
G20  20626648.071        2175.455          81.301          45.250  
> 2014  7  3 10 11 52.2688020  0  4                     
G 1  21948613.463       64282.807        2037.073          44.250  
G 6  24907960.004      -77401.015       -2446.177          30.250  
G 4  22949994.284      -71553.002       -2245.296          39.750  
G20  20626649.161        2183.607          81.234          45.250  
> 2014  7  3 10 11 52.3688020  0  4                     
G 1  21948651.741       64486.459        2036.605          44.000  
G 6  24907912.686      -77645.808       -2448.388          31.000  
G 4  22949951.617      -71777.473       -2244.721          39.500  
G20  20626649.987        2191.762          81.412          45.250  
> 2014  7  3 10 11 52.4688020  0  4                     
G 1  21948691.379       64690.115        2036.293          44.000  
G 6  24907863.127      -77890.594       -2447.574          30.500  
G 4  22949910.891      -72001.949       -2243.630          39.500  
G20  20626650.579        2199.893          81.692          45.250  
> 2014  7  3 10 11 52.5688020  0  4                     
G 1  21948730.861       64893.776        2036.480          44.000  
G 6  24907813.029      -78135.369       -2448.100          30.750  
G 4  22949866.563      -72226.433       -2244.741          39.500  
G20  20626651.664        2208.043          81.741          45.250  
> 2014  7  3 10 11 52.6688020  0  4                     
G 1  21948768.574       65097.440        2037.761          44.000  
G 6  24907769.120      -78380.130       -2445.385          30.500  
G 4  22949824.451      -72450.895       -2244.108          39.750  
G20  20626654.381        2216.199          81.972          45.250  
> 2014  7  3 10 11 52.7688020  0  4                     
G 1  21948807.488       65301.124        2036.815          44.000  
G 6  24907724.459      -78624.873       -2447.400          30.500  
G 4  22949780.239      -72675.347       -2243.841          39.250  
G20  20626658.197        2224.389          82.114          45.000  
> 2014  7  3 10 11 52.8688020  0  4                     
G 1  21948846.429       65504.805        2036.457          44.000  
G 6  24907677.718      -78869.618       -2448.543          31.000  
G 4  22949736.330      -72899.779       -2244.943          39.250  
G20  20626662.357        2232.584          81.926          45.250  
> 2014  7  3 10 11 52.9688020  0  4                     
G 1  21948885.561       65708.474        2036.356          44.000  
G 6  24907632.189      -79114.389       -2448.046          31.000  
G 4  22949693.373      -73124.232       -2244.419          39.000  
G20  20626666.227        2240.775          82.325          45.000  
> 2014  7  3 10 11 53.0688020  0  4                     
G 1  21948923.065       65912.148        2036.108          44.000  
G 6  24907584.062      -79359.160       -2447.860          31.000  
G 4  22949650.940      -73348.701       -2245.452          39.000  
G20  20626666.449        2248.953          81.791          45.000  
> 2014  7  3 10 11 53.1688020  0  4                     
G 1  21948962.157       66115.759        2035.837          44.000  
G 6  24907539.004      -79603.961       -2448.964          31.500  
G 4  22949607.587      -73573.205       -2243.878          39.250  
G20  20626666.050        2257.088          81.785          45.000  
> 2014  7  3 10 11 53.2688020  0  4                     
G 1  21949000.776       66319.431        2037.282          44.000  
G 6  24907489.906      -79848.719       -2446.329          30.500  
G 4  22949563.415      -73797.669       -2244.906          39.000  
G20  20626667.402        2265.284          82.716          45.000  
> 2014  7  3 10 11 53.3688020  0  4                     
G 1  21949039.711       66523.101        2036.659          43.750  
G 6  24907442.842      -80093.499       -2447.491          31.250  
G 4  22949521.777      -74022.116       -2244.652          39.000  
G20  20626666.616        2273.485          81.487          45.250  
> 2014  7  3 10 11 53.4688020  0  4                     
G 1  21949078.628       66726.759        2036.179          44.000  
G 6  24907397.534      -80338.270       -2448.053          31.000  
G 4  22949479.567      -74246.588       -2244.489          39.250  
G20  20626667.294        2281.682          82.017          45.250  
> 2014  7  3 10 11 53.5688020  0  4                     
G 1  21949117.185       66930.427        2036.682          44.000  
G 6  24907352.346      -80583.038       -2447.452          31.000  
G 4  22949435.970      -74471.041       -2243.992          39.250  
G20  20626668.298        2289.886          81.997          45.250  
> 2014  7  3 10 11 53.6688020  0  4                     
